original_address,new_address,owner_providence_state,owner_country,owner_latitude,owner_longitude
"Room503,5F,Building 1, No.1 Xingye Road, GanlanTown, Dinghai, District,Zhoushan,Zhejiang","Room 503, 5F, Building 1, No. 1 Xingye Road, Ganlan Town, Dinghai District, Zhoushan, Zhejiang",Zhejiang,CHN,29.98333,122.11333
"ROOM 1606 DIAMOND PLAZA,415 JIANGAN ROAD,JIANGBEI DISTRICT,NINGBO,CHINA","ROOM 1606 DIAMOND PLAZA, 415 JIANGAN ROAD, JIANGBEI DISTRICT -- NINGBO, ZHEJIANG -- CHN -- 29.88302 -- 121.55043",,,,
"Building 3, 87 Yuan 'an xinjie, Haizhu District, Guangzhou City, China","Building 3, 87 Yuan 'an xinjie, Haizhu District, Guangzhou City",Guangdong Province,CHN,23.104274,113.281733
"Room 1401,No.644 Tongfu Road East, Guangzhou, China","Room 1401, No. 644 Tongfu Road East","Guangzhou, Guangdong",CHN,23.1395,113.27523
"Room 1401, No.644 Tongfu Road East, Guangzhou, P.R. China","Room 1401, No.644 Tongfu Road East","Guangzhou, Guangdong",CHN,23.13867,113.26788
"Room606,NO.1-6 Shanghui Road ,Ganlan Town,Dinghai District,Zhoushan City,Zhejiang Province","Room 606, No. 1-6 Shanghui Road, Ganlan Town, Dinghai District, Zhoushan City, Zhejiang Province",Zhejiang Province,CHN,29.94556,122.2225
"Room 301, 3rd Floor, No.47-22 Daqing Road, Weihai Economic and Technological Development Zone, Shandong Province","Room 301, 3rd Floor, No.47-22 Daqing Road, Weihai Economic and Technological Development Zone",Shandong Province,CHN,37.50778,122.055
"Room606,NO.1-6 Shanghui Road,Ganlan Town,Dinghai District,Zhoushan City,Zhejiang Province","Room 606, No. 1-6 Shanghui Road, Ganlan Town, Dinghai District, Zhoushan City, Zhejiang Province","Zhoushan, Zhejiang",CHN,29.97881,122.21942
"Southwest of Yandunjiao Village, Lidao Town, Rongcheng City, Weihai City, Shandong Province","Southwest of Yandunjiao Village, Lidao Town, Rongcheng City, Weihai City, Shandong Province",Shandong,CHN,37.06912,122.37983
No.661 AnPu Road Shanghai CHINA,No. 661 AnPu Road,Shanghai,CHN,31.21808,121.4292
"4205A Landmark Tower,4028 Jintian Rd,Futian District,Shenzhen,China","4205A Landmark Tower, 4028 Jintian Rd, Futian District",Shenzhen,CHN,22.549969,114.054586
"4205A Landmark Tower,4028 Jintian Rd, Futian District, Shenzhen, China.","4205A Landmark Tower, 4028 Jintian Rd, Futian District",Guangdong,CHN,22.548875,114.059951
"4205A Landmark Tower, 4028 Jintian Road, Futian District, Shenzhen, China 518035","4205A Landmark Tower, 4028 Jintian Road, Futian District, Shenzhen, China 518035","Shenzhen, Guangdong",CHN,22.545,114.0315
"4205A Landmark Tower,4028 JintianRoad, Futian District, Shenzhen, China518035.","4205A Landmark Tower, 4028 Jintian Road, Futian District, Shenzhen, China 518035","Shenzhen, Guangdong",CHN,22.53921,114.05442
"4205A Landmark Tower,4028 JintianRoad, Futian District, Shenzhen, China518035","4205A Landmark Tower, 4028 Jintian Road, Futian District",Shenzhen,CHN,22.53949,114.05415
"4205A Landmark Tower,4028 Jintian Road, Futian District, Shenzhen, China.","4205A Landmark Tower, 4028 Jintian Road, Futian District",Shenzhen,CHN,22.54673,114.05262
"NO.31, MINFENG LANE, XICHENG DISTRICT,BEIJING,CHINA","NO.31, MINFENG LANE, XICHENG DISTRICT, BEIJING",Beijing,CHN,39.91789,116.397128
6 Floor No.661 Anpu Road Shanghai,6 Floor No.661 Anpu Road,Shanghai,CHN,31.20319,121.4421
"No.661 Rd. Anpu, Yangpu District, Shanghai.China",No. 661 Rd. Anpu,"Yangpu District, Shanghai",CHN,31.27656,121.52139
ROOM 1202A NO 118 XIN LING RD CHINA(SHANGHAI)PILOT FREE TRADE ZONE,ROOM 1202A NO 118 XIN LING RD,"Shanghai, China",CHN,31.2181,121.50124
"ROOM 1202A, NO 118 XIN LING ROAD, CHINA(SHANGHAI) PILOT FREE TRADE ZONE","ROOM 1202A, NO 118 XIN LING ROAD","Shanghai, China (Pilot Free Trade Zone)",CHN,31.2455,121.52225
"101,1-11 Building 19,Block 18,188 West Road ,South 4th Ring Road,Fengtai District,Beijing","101,1-11 Building 19, Block 18, 188 West Road, South 4th Ring Road","Fengtai District, Beijing",CHN,39.895,116.34111
"Yantian Modern Industry Service Center   6a-155Shatoujiao Street, Yantian District, Shenzhen，  China","Yantian Modern Industry Service Center, 6a-155 Shatoujiao Street, Yantian District",Shenzhen,CHN,22.56953,114.2691
"6A-155, 6th Floor Building A Yantian Modern Industry Service Center (phase I)3018 ShaYan road Tianxin Community Sha Tou Street Yan tian District Shenzhen,china","6A-155, 6th Floor Building A Yantian Modern Industry Service Center (phase I)3018 ShaYan road Tianxin Community Sha Tou Street Yan tian District","Shenzhen, Guangdong",CHN,22.5523,113.9331
"Station18,Room 401,Building 2,No.3,Shanghui Road,Ganlan Town,Dinghai District,Zhoushan City,Zhejiang Province CHINA","Station 18, Room 401, Building 2, No. 3, Shanghui Road, Ganlan Town, Dinghai District, Zhoushan City, Zhejiang Province",Zhejiang,CHN,29.97,122.2
Mashan Chengshan Town Rongcheng Ciry,"Mashan, Chengshan Town","Rongcheng, Shandong Province",CHN,37.1527,122.49212
"Lidao Village, Lidao Town, Rongcheng City","Lidao Village, Lidao Town, Rongcheng City",Shandong Province,CHN,37.08889,122.45333
RONGCHENGSHANDONG,RONGCHENGSHANDONG,Shandong Province,CHN,35.22,120.61
"FANG ZHI RAN ZHENG INDUSTRIAL PARK,WEST OF RUSHAN CITY,WEIHAI CITY,SHANDONG PROVINCE","FANG ZHI RAN ZHENG INDUSTRIAL PARK, WEST OF RUSHAN CITY, WEIHAI CITY, SHANDONG PROVINCE",Shandong,CHN,37.11111,122.505
RONG CHENG SHAN DONG,RONG CHENG SHAN DONG,Shandong Province,CHN,36.64385,117.16866
"Southwest of Yandunjiao Village,Lidao Town,Rongcheng City,Weihai City,Shandong Province","Southwest of Yandunjiao Village, Lidao Town, Rongcheng City, Weihai City, Shandong Province",Shandong,CHN,37.25644,122.51065
"MASHAN,CHENGSHAN TOWN,RONGCHENG CITY","MASHAN, CHENGSHAN TOWN, RONGCHENG CITY",Shandong Province,CHN,36.57,120.0018
Rongcheng Shandong China,"Rongcheng, Shandong, China",Shandong,CHN,37.14454,122.4731
Shawodao Renhe County Rongcheng Shandong City CHINA,Shawodao Renhe County Rongcheng Shandong,Shandong,CHN,35.24444,119.46556
Shawo Island Renhe Town Rongcheng City,Shawo Island Renhe Town,"Rongcheng City, Shandong Province",CHN,37.77854,122.55182
"Shawo Island,Renhe Town, Rongcheng City,Shandong,China","Shawo Island, Renhe Town, Rongcheng City, Shandong",Shandong,CHN,37.17429,122.76601
NO.55 HUAYUAN ROAD WEIHAI SHANDONG CHINA,NO.55 HUAYUAN ROAD,"WEIHAI, SHANDONG",CHN,37.50833,122.115
RONGCHENG SHANDONG,RONGCHENG SHANDONG,Shandong Province,CHN,36.61781,121.29492
NO.55 Huayuan Road of Weihai China,NO.55 Huayuan Road,"Weihai, Shandong Province",CHN,37.50222,122.09389
No.9 jinshe street chengqu Rushan city Shandong province china,"No. 9 Jinshe Street, Chengqu, Rushan City",Shandong Province,CHN,36.579,120.4825
RONGCHENG  SHANDONG,"RONGCHENG, SHANDONG",Shandong,CHN,37.38833,122.5
"FLOOR 10-11TH, PUTUO MARINE & FISHERIES BUILDING, NO.9 WEST DONGHAI RD., SHENJIAMEN STREET, PUTUO DISTRICT, ZHOUSHAN CITY","FLOOR 10-11TH, PUTUO MARINE & FISHERIES BUILDING, NO.9 WEST DONGHAI RD., SHENJIAMEN STREET, PUTUO DISTRICT, ZHOUSHAN CITY",Zhejiang Province,CHN,,
"Floor 10-11th, PUTUO MARINE & FISHERIES BUILDING , NO.9 WEST DONGHAI RD., SHENJIAMEN STREET, PUTUO DISTRICT, ZHOUSHAN CITY","Floor 10-11th, Putuo Marine & Fisheries Building, No. 9 West Donghai Rd., Shenjiamen Street, Putuo District, Zhoushan City",Zhejiang,CHN,29.97556,122.15778
"Floor 10 - 11th Putuo Marine & Fisheries Building, No. 9 West Donghai RoadShenjiamen Street,Putuo District, Zhoushan City, China","Floor 10 - 11th Putuo Marine & Fisheries Building, No. 9 West Donghai Road","Putuo District, Zhoushan City",CHN,29.96585,122.29145
"FLOOR 11TH,WEST ROOM NO.1,PUTUO OCEAN & FISHERIES BUILDING,9 WEST DONGHAI ROAD,SHENJIAMEN STREET,PUTUO DISTRICT,ZHOUSHAN CITY,CHINA(ZHEJIANG) PILOT FREE TRADE ZONE","FLOOR 11TH, WEST ROOM NO.1, PUTUO OCEAN & FISHERIES BUILDING, 9 WEST DONGHAI ROAD, SHENJIAMEN STREET, PUTUO DISTRICT, ZHOUSHAN CITY",ZHEJIANG,CHN,29.98417,122.1891
"ROOM 1805B,SHENZHEN DAZHONGHUA INTERNATIONAL TRADING PLAZA,NO.1 FUHUA FIRST ROAD,FU'AN COMMUNITY,FUTIAN STREET,FUTIAN DISTRICT,SHENZHEN CITY","ROOM 1805B, SHENZHEN DAZHONGHUA INTERNATIONAL TRADING PLAZA, NO.1 FUHUA FIRST ROAD, FU'AN COMMUNITY, FUTIAN STREET, FUTIAN DISTRICT, SHENZHEN CITY",Guangdong Province,CHN,22.546303,114.037788
"Room 101, Main Building, Gaofa Building, Fushun Road, Torch High-tech Industrial Development Zone, Weihai City, Shandong Province.","Room 101, Main Building, Gaofa Building, Fushun Road, Torch High-tech Industrial Development Zone, Weihai City, Shandong Province",Shandong,CHN,37.50833,122.08333
"Room 1302,International Chamber Of Commerce Building, Xinzhou Road East,Futian District, Shenzhen City , China","Room 1302, International Chamber Of Commerce Building, Xinzhou Road East, Futian District, Shenzhen City",Guangdong Province,CHN,22.54815,114.08684
"4203 Landmark Tower, Jintian Rd., Futian District , Shenzhen，China","4203 Landmark Tower, Jintian Rd., Futian District",Shenzhen / Guangdong,CHN,22.54637,114.05968
"4203 LANDMARK TOWER,4028 JINTIAN ROAD, FUTIAN DISTRICT,SHENZHEN,CHINA","4203 Landmark Tower, 4028 Jintian Road, Futian District",Shenzhen,CHN,22.54027,114.06107
"4203 Landmark Tower, 4028 Jintian Rd., Futian District , Shenzhen China","4203 Landmark Tower, 4028 Jintian Rd., Futian District",Shenzhen,CHN,22.53312,113.95229
"4203 Landmark Tower,4028 Jintian Road, Futian District, Shenzhen, China.","4203 Landmark Tower, 4028 Jintian Road, Futian District","Shenzhen, Guangdong Province",CHN,22.53315,114.05244
"4203 Landmark Tower, Jintian Rd., Futian District , Shenzhen?China","4203 Landmark Tower, Jintian Rd., Futian District",Shenzhen,CHN,22.54924,114.05573
"Room601,No.55-3 Dandong Street,Zhongshan District,Dalian ,China","Room 601, No. 55-3 Dandong Street, Zhongshan District, Dalian",Liaoning,CHN,38.91491,121.62014
"NO.1-6 Shanghui Road,Ganlan Town,Dinghai District,Zhoushan City,Zhejiang  Province 603,Commercial Center,Zhoushan National Pelagic Fishery Base",NO.1-6 Shanghui Road,"Dinghai District, Zhoushan City, Zhejiang Province",CHN,30.03109,122.0978
"Pharmaceutical Building,NO.2846,Xingang East Road,Haizhu District,Guangzhou","Pharmaceutical Building, NO.2846, Xingang East Road, Haizhu District","Guangzhou, Guangdong",CHN,23.09123,113.28454
"Pharmaceutical Building, NO.2846 Xingang East Road, Haizhu District, Guangzhou, China","Pharmaceutical Building, NO.2846 Xingang East Road, Haizhu District",Guangzhou,CHN,23.07343,113.30205
"9F SHANDONG HIGH-SPEED BUILDING,NO.29 MIAOLING ROAD,QINGDAO,CHINA","9F SHANDONG HIGH-SPEED BUILDING, NO. 29 MIAOLING ROAD","Qingdao, Shandong Province",CHN,36.06329,120.38847
"Station10,Room502,No1-5,Shanghui Road,Ganlan,Dinghai District,Zhoushan,Zhejiang.","Station 10, Room 502, No. 1-5, Shanghui Road, Ganlan, Dinghai District, Zhoushan, Zhejiang",Zhejiang,CHN,29.97917,122.04944
"Station10,Room502,No1-5,Shanghui Road,Ganlan,Dinghai District,Zhoushan,Zhejiang","Station 10, Room 502, No. 1-5, Shanghui Road, Ganlan, Dinghai District, Zhoushan, Zhejiang",Zhejiang,CHN,29.975,122.13667
"NO.1-6 Shanghui Road,Ganlan Town,Dinghai District,Zhoushan City,Zhejiang Province (603,Commercial Center,Zhoushan National Pelagic Fishery Base)","NO.1-6 Shanghui Road, Ganlan Town, Dinghai District, Zhoushan City, Zhejiang Province",Zhejiang,CHN,29.9733,122.2031
"STATION10,ROOM502,NO1-5,SHANGHUI ROAD,GANLAN,DINGHAI DISTRICT,ZHOUSHAN,ZHEJIANG","STATION10, ROOM 502, NO 1-5, SHANGHUI ROAD, GANLAN, DINGHAI DISTRICT, ZHOUSHAN, ZHEJIANG","Zhoushan, Zhejiang",CHN,29.97444,122.12079
Rongcheng Shandong,"Rongcheng, Shandong",Shandong Province,CHN,37.15264,122.40609
"NO.31, Minfeng Lane, Xicheng District ,Beijing, China","NO.31, Minfeng Lane, Xicheng District",Beijing,CHN,39.9112,116.3659
"NO. 23 JINRONGJIE, XICHENG DISTRICT, BEIJING","NO. 23 JINRONGJIE, XICHENG DISTRICT",BEIJING,CHN,39.906865,116.397115
"101,1-11 Building 19, Block18, 188 West Road, South 4th Ring Road, Fengtai District, Beijing","101, 1-11 Building 19, Block 18, 188 West Road, South 4th Ring Road, Fengtai District",Beijing,CHN,39.87,116.29
"Flr. 15, Section B, Hainabaichuan HQ MAnsion, N.6, Baoxing Rd, Haibin Community Xin'an Sub-district, Bao'an District, Shenzhen, Guangdong, China","Flr. 15, Section B, Hainabaichuan HQ Mansion, N.6, Baoxing Rd, Haibin Community Xin'an Sub-district, Bao'an District",Guangdong,CHN,22.58,113.88333
"NO.31, Minfeng Lane,Xicheng District,Beijing,China","No. 31, Minfeng Lane, Xicheng District",Beijing,CHN,39.9125,116.365
"31, MINFENG LANE, XIDAN, BEIJING, CHINA","31, Minfeng Lane, Xidan",Beijing,CHN,39.91234,116.39767
"NO.31, MinfengLane, Xi Dan, Beijing, China","NO.31, Minfeng Lane, Xi Dan",Beijing,CHN,39.93112,116.36531
"No.1-3 Shanghui Road, Ganlan Town, Dinghai District, Zhoushan City, Zhejiang Province","No.1-3 Shanghui Road, Ganlan Town, Dinghai District, Zhoushan City, Zhejiang Province",Zhejiang,CHN,29.97729,122.07841
"1ST Floor, BCI House, Avarua, Rarotonga, Cook Islands","1ST Floor, BCI House, Avarua, Rarotonga, Cook Islands",Rarotonga,COK,-21.21278,-159.77583
"NERY CHARLEN SOLAR 1-2
Y FICUS
SECTOR GUARANILLO GRANDE S/N
MANZANA 99
EDIFICIO
SALICA DEL ECUADOR
PAROQUIA POSORJA ECUADOR","NERY CHARLEN SOLAR 1-2, Y FICUS, SECTOR GUARANILLO GRANDE S/N, MANZANA 99, EDIFICIO SALICA DEL ECUADOR, PAROQUIA POSORJA",Guayas,ECU,-1.268848,-80.224273
"POLIGONO LANDABASO, S/N- EDIF ALBACORA, 48370 BERMEO, ESP","POLIGONO LANDABASO, S/N- EDIF ALBACORA","BERMEO, BIZKAIA",ESP,43.44167,-2.70417
"PARQUE CIENTIFICO Y TECNOLOGICO DE VIZCAYA LAIDA BIDEA, EDF. 407, 2º, 48170 ZAMUDIO, ESP","Laida Bidea, Edificio 407, 2º, 48170 Zamudio -- Bizkaia -- ESP -- 43.29705 -- -2.89563",,,,
"PUERTO DE CELEIRO, MUELLE 2, 27863 VIVERO, ESP","PUERTO DE CELEIRO, MUELLE 2, 27863 VIVERO",Galicia,ESP,43.71361,-7.47167
"MUELLE REPARACIONES BOUZAS, ALMACEN A-10, 36208 VIGO, ESP","Muelle Reparaciones Bouzas, Almacen A-10","Vigo, Galicia",ESP,42.2279,-8.7177
"NUEVOS PABELLONES DE BOUZAS, 82, 36208 VIGO, ESP","NUEVOS PABELLONES DE BOUZAS, 82","VIGO, PONTEVEDRA",ESP,42.21375,-8.74306
"P O Box 16386, Suva",P O Box 16386,Suva,FJI,-18.1416,178.4414
"P.O.BOX 2318, GOVERNMENT BUILDING, SUVALOT 9-10 ROKOBILI INDUSTRIAL SUBDIVISION","P.O.BOX 2318, GOVERNMENT BUILDING, SUVALOT 9-10 ROKOBILI INDUSTRIAL SUBDIVISION","Suvalot, Rokobili",VUT,-17.67743,178.25253
"33 FREESTONE RD, WALUBAY, SUVA.",33 Freestone Rd,"Walubay, Suva",FJI,-18.13444,178.45111
"26 Matua Street,Walu Bay,Suva,Fiji.",26 Matua Street,"Suva, Fiji",FJI,-18.125,178.431
"16 DAYA STREET, VATUWAQA, G.P.O. BOX 18059, SUVA","16 Daya Street, Vatuwaqa, G.P.O. Box 18059",Suva,FJI,-18.14167,178.44194
"33 Freeston Rd, Walu Bay, Suva, Fiji.","33 Freeston Rd, Walu Bay, Suva",Suva/FI,FJI,-18.14,178.441667
"33 FREESTON ROAD WALU BAY, SUVAFIJI",33 Freeston Road,Walu Bay,Fiji (FJI),-17.74972,178.43306
"33 FREESTON RD,WALUBAY,SUVA",33 Freeston Rd,Walubay,FJ (Fiji),-18.13333,178.41667
"33 FREESTON ROAD
WALU BAY
SUVA,FIJI",33 Freeston Road,Walu Bay,Fiji (FJI),-18.14139,178.44183
"33 FREESTON ROAD
WALU BAY 
SUVA
FIJI",33 FREESTON ROAD,WALU BAY,FJI,-18.13333,178.43333
"33 FREESTON ROAD
WALU BAY
SUVA
FIJI",33 Freeston Road,Walu Bay,Fiji (FJI),-18.13,178.44
"33 FREESTON ROAD
WAKU BAY
SUVA
FIJI",33 Freeston Road,Waku Bay,FJ,-18.10915,178.4505
"33 Freeston RdWalu Bay, SuvaFiji","33 Freeston Rd, Walu Bay -- Suva, Central Division -- FJI -- -18.13750 -- 178.44250",,,,
33 FREESTON ROADWALU BAYSUVAFIJI,33 Freeston Road,Walu Bay,FJ,-17.76917,178.43622
"P O Box 2036, Government Buildings, Suva. Telephone: (679) 9922118","P O Box 2036, Government Buildings",Suva,FJI,-18.1416,178.4416
Muaiwalu Complex P O Box 13356 Suva,Muaiwalu Complex P O Box 13356,Suva,FJI,-18.12457,178.44094
P.O. BOX 1833 KOLONIA POHNPEI  FM 96941,P.O. BOX 1833 KOLONIA,POHNPEI,FM,6.965,158.215
"P.O.BOX 1833, Kolonia, Pohnpei State FSM 96941","P.O. BOX 1833, Kolonia",Pohnpei State,FSM,6.9675,158.215
"P.O.Box 1833, Kolonia, Pohnpei State FM 96941","P.O.Box 1833, Kolonia",Pohnpei State,FSM,6.95833,158.25
"P.O.BOX 1450, Kolonia, Pohnpei FM 96941","P.O.BOX 1450, Kolonia",Pohnpei,FM,6.967438,158.207228
"P.O.Box 1450, Kolonia, Pohnpei, FM96941","P.O.Box 1450, Kolonia",Pohnpei,FSM,6.955,158.18
"P.O.Box 1450,Kolonia,Pohnpei,FM96941","P.O. Box 1450, Kolonia -- Pohnpei -- FSM -- 6.96290 -- 158.27670",,,,
"P.O. BOX 1036 COLONIA, YAP, FM 96943",P.O. BOX 1036 COLONIA,Yap State,FSM,9.535,138.1075
"P.O. BOX 7 Kolonia, Pohnpei FM 96941",P.O. BOX 7 Kolonia,Pohnpei,FM,6.96472,158.21583
P.O.BOX R KOLONIA POHNPEI  FM  96941,P.O. BOX R Kolonia,Pohnpei,FSM,6.95865,158.24726
"POB R, KOLONIA POHNPEI FM  96941","POB R, Kolonia",Pohnpei,FSM,6.95741,158.21544
"P.O. BOX R, KOLONIA, POHNPEI FM 96941","P.O. BOX R, Kolonia",Pohnpei,FSM,6.96762,158.20874
"P.O.BOX PS 1833 Kolonia, Pohnpei FSM 96941",P.O. BOX PS 1833 Kolonia,Pohnpei,FSM,6.96278,158.215
"P.O. Box 1450Kolonia, Pohnpei 96941",P.O. Box 1450,"Kolonia, Pohnpei",FSM,6.9625,158.25
"P.O. Box  1450, Kolonia, Pohnpei FM 96941","P.O. Box 1450, Kolonia",Pohnpei,FM,6.95,158.1675
"P.O. Box 1450
Kolonia, Pohnpei FM 96941",P.O. Box 1450,"Kolonia, Pohnpei",FSM,6.96225,158.24778
"P.O. Box 1833 Kolonia, Pohnpei State FSM 96941",P.O. Box 1833 Kolonia,Pohnpei State,FSM,6.96,158.215
"P.O Box 1833 Kolonia, Pohnpei FSM 96941",P.O Box 1833 Kolonia,Pohnpei,FSM,6.9625,158.2125
"P.O. BOX 1833 Kolonia, Pohnpei State FM 96941",P.O. BOX 1833 Kolonia,Pohnpei State,FM,6.96222,158.22778
"Kapwarsou Str NFC Building PO BOX R, KOLONIA, POHNPEI, FM 96941",Kapwarsou Str NFC Building PO BOX R,"Kolonia, Pohnpei",FSM,6.97444,158.20861
"Kapwar Sou Street NFC BuildingP.O. Box RKolonia, Pohnpei State, FM 96941",Kapwar Sou Street NFC Building,Pohnpei State,FSM,6.96333,158.25
"c/o Kapwarsou Street, NFC Building, P.O. Box R, Kolonia, Pohnpei FM 96941","c/o Kapwarsou Street, NFC Building, P.O. Box R, Kolonia",Pohnpei,FSM,6.96667,158.25
"Kawasan Industri Perikanan Pelabuhan Samudera Blok. K Kav No.4, Kel. Penjaringan, Kec. Penjaringan, Kota
Jakarta Utara, Prov. DKI Jakarta","Kawasan Industri Perikanan Pelabuhan Samudera Blok. K Kav No.4, Kel. Penjaringan, Kec. Penjaringan, Kota Jakarta Utara, Prov. DKI Jakarta",Jakarta,IDN,-6.12813,106.84128
"Muara Baru Center Gedung B No. 118-119, Kel. Penjaringan, Kec. Penjaringan, Kota Jakarta Utara","Muara Baru Center Gedung B No. 118-119, Kel. Penjaringan, Kec. Penjaringan",Jakarta Utara,IDN,-6.1425,106.792221
"Jln. Gondangdia Kecil 2 A, RT.001/RW.005, Kel. Cikini, Kec. Menteng, Kota Jakarta Pusat","Jln. Gondangdia Kecil 2 A, RT.001/RW.005, Kel. Cikini, Kec. Menteng",Jakarta Pusat,IDN,-6.194711,106.832068
"126,ORIKUCHI-CHO,MAKURAZAKI-SHI,KAGOSHIMA,JAPAN","126, Orikuchi-cho, Makurazaki-shi",Kagoshima,JPN,31.42699,130.26852
"126 ORIGUCHICHO,MAKURAZAKI-SHI,KAGOSHIMA-KEN,JAPAN",126 ORIGUCHICHO,"MAKURAZAKI-SHI, KAGOSHIMA-KEN",JPN,31.27809,130.30373
"219, UKITSUNIBAN-CHO, MUROTO-SHI, KOCHI-KEN, JAPAN","219, UKITSUNIBAN-CHO, MUROTO-SHI, KOCHI-KEN",Kochi,JPN,33.2876,
"784-6, MIYAHIRA-AZA, HAEBARU-CHO, SHIMAJIRI-GUN, OKINAWA-KEN, JAPAN","– 784-6, Miyahira-Aza, Haebaru-cho, Shimajiri-gun, Okinawa-ken",– Okinawa,– JPN,,
"2-603 3 BAN, 2CHOME, MINAMIHARIMAYA-CHO, KOCHI-SHI,KOCHI,JAPAN","2-603 3 BAN, 2CHOME, MINAMIHARIMAYA-CHO, KOCHI-SHI, KOCHI",Kochi,JPN,33.56247,133.53012
"28-26, AZA, TAKEGASHIMA, SHISHIKUIURA, KAIYO-CHO, KAIFU-GUN, TOKUSHIMA-KEN, JAPAN","28-26, AZA, TAKEGASHIMA, SHISHIKUIURA, KAIYO-CHO, KAIFU-GUN, TOKUSHIMA-KEN",Tokushima,JPN,33.4421,134.73125
"559-1,HEDA,NUMAZU-SHI,SHIZUOKA,JAPAN","559-1, Heda, Numazu-shi, Shizuoka",Shizuoka,JPN,35.09028,138.83667
"1698-2, KUBOTSU, TOSASHIMIZU-SHI, KOCHI, JAPAN","1698-2, Kubotsu","Tosashimizu-shi, Kochi",JPN,32.96667,133.20333
"5-9-25, NAKAMINATO, YAIZU-SHI, SHIZUOKA-KEN, JAPAN","5-9-25 Nakaminate, Yaizu-shi, Shizuoka-ken, Japan",Shizuoka,JPN,34.86933,138.25564
"5-9-25 NAKAMINATO, YAIZU-SHI, SHIZUOKA-KEN, JAPAN","5-9-25 Nakaminto, Yaizu-shi, Shizuoka-ken -- Shizuoka -- JPN -- 34.96608 -- 138.22667",,,,
"198-5, KAMIKOSABA, KARAKUWA-CHO, KESENNUMA-SHI, MIYAGI-KEN, JAPAN","198-5, Kamikosaba, Karakuwa-cho, Kesennuma-shi, Miyagi-ken",Miyagi,JPN,38.9325,141.55611
"198-5, KAMIKOSABA, KARAKUWA-CHO, KESENNUMA-SHI, MIYAGI, JAPAN","198-5 Kamikosaba, Karakuwa-cho, Kesennuma-shi, Miyagi",Miyagi,JPN,38.91444,141.57278
"198-5,KAMIKOSABA, KARAKUWA-CHO, KESENNUMA-SHI, MIYAGI-KEN, JAPAN","198-5, Kamikosaba, Karakuwa-cho, Kesennuma-shi, Miyagi-ken",Miyagi,JPN,38.9325,141.55556
"134-34, KATAGAMI, NANGO-CHO, NICHINAN-SHI, MIYAZAKI, JAPAN","134-34, Katagami, Nango-cho, Nichinan-shi, Miyazaki",Miyazaki,JPN,31.97633,131.408
"5-2, UOITCIBAMAE, KESENNUMA-SHI, MIYAGI, JAPAN","5-2, UOITCIBAMAE, KESENNUMA-SHI, MIYAGI",MIYAGI,JPN,38.89634,141.59027
"5-2 UOICHIBAMAE, KESENNUMA-SHI, MIYAGI, JAPAN","5-2 UOICHIBAMAE, KESENNUMA-SHI, MIYAGI -- Miyagi -- JPN -- 38.91000 -- 141.58250",,,,
"1794, WAGU, SHIMA-CHO, SHIMA-SHI, MIE-KEN,JAPAN","1794 Wagu, Shima-cho, Shima-shi, Mie-ken",Mie,JPN,34.29345,136.89785
2-7-18 NARUTAKI NAGASAKI-SHI NAGASAKI-KEN,"2-7-18 Narutaki, Nagasaki-shi, Nagasaki-ken -- Nagasaki -- JPN -- 32.75500 -- 129.87778",,,,
"2-7-18,NARUTAKI,NAGASAKI-SHI,NAGASAKI-KEN,JAPAN","2-7-18, Narutaki","Nagasaki-shi, Nagasaki-ken",JPN,32.78,129.87333
"1-3-24, NAKASATO, ISHINOMAKI-SHI, MIYAGI-KEN, JAPAN","1-3-24, Nakasato","Ishinomaki-shi, Miyagi-ken",JPN,38.43833,141.2925
"3-11-21,ABURATSU, NICHINAN-SHI, MIYAZAKI, JAPAN","3-11-21, Aburatsu, Nichinan-shi, Miyazaki -- Miyazaki -- JPN -- 31.27480 -- 131.56917",,,,
"2477-1, USA, USA-CHO, TOSA-SHI, KOCHI, JAPAN","2477-1, USA, USA-CHO, TOSA-SHI, KOCHI",KOCHI,JPN,33.32,133.75
"1-32-21, YOGI, OKINAWA-SHI, OKINAWA,JAPAN","1-32-21, YOGI, OKINAWA-SHI, OKINAWA",Okinawa,JPN,26.33745,127.79935
"370,ASHIZAKI, NYUZEN-MACHI, SHIMONIKAWA-GUN, TOYAMA, JAPAN","370 Ashizaki, Nyusen-machi, Shimonikawa-gun, Toyama",Toyama Prefecture,JPN,36.59635,137.33877
370 ASHIZAKI NYUZEN-MACHI SHIMONIIKAWA-GUN TOYAMA-KEN JAPAN,"370 Ashizaki Nyugen-machi, Shimoniikawa-gun",Toyama-ken,JPN,36.83111,137.105
"370,ASHIZAKI,NYUZEN-MACHI, SHIMONIKAWA-GUN, TOYAMA, JAPAN","370 Ashizaki, Nyūzen-machi, Shimonikawa-gun, Toyama",Toyama,JPN,37.0625,137.36833
"2232, Motokou, Muroto-shi, Kochi-ken, Japan","2232, Motokou, Muroto-shi, Kochi-ken, Japan",Muroto-shi/Kochi-ken,JPN,33.28472,
"9547, HASAKI,KAMISU-SHI,IBARAKI,JAPAN","9547 Hasaki, Kamisu-shi, Ibaraki",Ibaraki,JPN,35.9423,140.65007
"4-17-10, NISHIZAKICHO, ITOMAN-CITY,OKINAWA, JAPAN","4-17-10, Nishizakicho, Itoman-City",Okinawa,JPN,26.10632,127.68025
"4-17-10, NISHIZAKI-CHO, ITOMAN-CITY, OKINAWA, JAPAN","4-17-10, Nishizaki-cho, Itoman-city, Okinawa",Okinawa,JPN,26.1214,127.6589
"1-21-24, KORIMOTO, KAGOSHIMA-SHI, KAGOSHIMA-KEN, JAPAN","1-21-24, Korimoto","Kagoshima-shi, Kagoshima-ken",JPN,31.56,130.55778
"1978, MUKAIYAMA-AZA, SUSAKI, SUSAKI-SHI, KOCHI-KEN, JAPAN","1978, Mukaiyama-aza, Susaki, Susaki-shi, Kochi-ken",Kochi,JPN,33.36712,132.85555
"15-12, YAMATE-CHO, SUSAKI-SHI, KOCHI, JAPAN","15-12, Yamate-Cho, Susaki-Shi, Kochi",Kochi,JPN,33.30832,133.4725
"1978,AZA-MUKAIYAMA,SUSAKI,SUSAKI-SHI,KOCHI,JAPAN","1978, Aza-Mukaiyama, Susaki, Susaki-shi, Kochi",Kochi,JPN,33.34333,133.325
"1978,AZA-MUKAIYAMA,  SUSAKI, SUSAKI-SHI, KOCHI, JAPAN","1978, Aza-Mukaiyama, Susaki, Susaki-shi, Kochi",Kochi,JPN,33.37919,133.24351
"1978 MUKAIYAMA, AZA, SUSAKI, SHUSAKI-SHI, KOCHI, JAPAN","1978 MUKAIYAMA, AZA, SUSAKI, SHUSAKI-SHI, KOCHI",Kochi,JPN,33.28,133.51972
"2-11, UOICHIBAMAE, KESENNUMA-SHI, MIYAGI, JAPAN","2-11, UOICHIBAMAE, KESENNUMA-SHI, MIYAGI",Miyagi,JPN,38.90889,141.58
"1-2-2, IZUMIZAKI, NAHA-SHI, OKINAWA","1-2-2, Izumizaki","Naha-shi, Okinawa",JPN,26.2129,127.67933
"127,SAZARAURA, MINAMIISE-CHO, WATARAI-GUN, MIE, JAPAN","127, Sazaraura, Minamiise-cho, Watarai-gun, Mie",Mie,JPN,34.4663,136.1768
"7-7,HIGASHIKOUEN,HAKATA-KU,FUKUOKA-SHI,FUKUOKA,JAPAN","7-7, Higashikouen, Hakata-ku, Fukuoka-shi, Fukuoka",Fukuoka,JPN,33.5955,130.42003
"21-1,AZA-TAKEGASIMA, SHISHIKUIURA, KAIYO-CHO, KAIFU-GUN, TOKUSHIMA, JAPAN","21-1, Aza-Takegasima, Shishikuiura, Kaiyo-cho, Kaifu-gun, Tokushima",Tokushima,JPN,33.52944,134.37111
"4788,NAKAMURA-OTSU, NANGO-CHO, NICHINAN-SHI, MIYAZAKI, JAPAN","4788 Nakamura-Otsu, Nango-cho, Nichinan-shi, Miyazaki -- Miyazaki -- JPN -- 31.18278 -- 131.38333",,,,
"3-11-2, HAMA-CHO, KAMAISHI-SHI, IWATE-KEN, JAPAN","3-11-2, HAMA-CHO, KAMAISHI-SHI, IWATE-KEN",Iwate,JPN,39.28944,141.8993
"3-11-2, HAMA-CHO,  KAMAISHI-SHI, IWATE-KEN, JAPAN","3-11-2, Hama-cho","Kamaishi-shi, Iwate-ken",JPN,39.26833,141.88611
"3-11-2,HAMA-CHO,KAMAISHI-SHI,IWATE-KEN,JAPAN",3-11-2 Hama-cho,"Kamaishi-shi, Iwate-ken",JPN,39.27667,141.87
"3-11-2, HAMACHO, KAMAISHISHI, IWATE, JAPAN","3-11-2, Hamacho, Kamaishi-shi, Iwate",Iwate,JPN,39.27633,141.89932
"2-A SHINRYOMANSHON 2-16-19MAKABI, NAHA-SHI, OKINAWA-KEN, JAPAN",2-A Shinryomanshon 2-16-19 Makabi,"Naha-shi, Okinawa-ken",JPN,26.21944,127.685
"1-64-3, Kawaguchicho, Kesennuma-shi, Miyagi, Japan","1-64-3, Kawaguchicho, Kesennuma-shi, Miyagi",Miyagi,JPN,38.91603,141.5937
"21 KIRIMA-MINAMI, SUSAKI-SHI, KOCHI, JAPAN","21 KIRIMA-MINAMI, SUSAKI-SHI, KOCHI",Kochi,JPN,33.29541,133.27568
"1-5-28, HON-MACHI, YAIZU-SHI, SHIZUOKA-KEN, JAPAN","1-5-28, Hon-machi, Yaizu-shi, Shizuoka-ken",Shizuoka,JPN,34.925,138.263
"1-7-6, NISHI-MACHI, NICHINAN-SHI, MIYAZAKI,JAPAN","1-7-6, Nishi-Machi, Nichinan-Shi, Miyazaki -- Miyazaki -- JPN -- 31.25100 -- 131.36472",,,,
"65 EI-MACHI SAKAIMINATO-SHI TOTTORI, JAPAN",65 EI-MACHI SAKAIMINATO-SHI TOTTORI,Tottori,JPN,35.572,133.248
"64,MATSUNOO-CHO,MAKURAZAKI-SHI,KAGOSHIMA,JAPAN","64 Matsunoo-cho, Makurazaki-shi, Kagoshima -- Kagoshima -- JPN -- 31.35278 -- 130.22722",,,,
"2-9-34,SHINHAMA-CHO, SHIOGAMA-SHI, MIAYGI, JAPAN","2-9-34, Shinhama-cho, Shiogama-shi, Miyagi",Miyagi,JPN,38.29612,141.01638
"2-9-34, Shinhamacho, Shiogama-shi, Miyagi-ken, Japan","2-9-34, Shinhamacho, Shiogama-shi, Miyagi-ken",Miyagi,JPN,38.29988,141.03394
"2071-16, MOTO-KOU, MUROTO-SHI, KOCHI, JAPAN","2071-16, MOTO-KOU, MUROTO-SHI, KOCHI",Kochi,JPN,33.18375,144.21503
"2071-16,MOTOKOU,MUROTO-SHI,KOCHI-KEN,JAPAN","2071-16, Motokou, Muroto-shi, Kochi-ken",Kochi,JPN,33.28788,133.86111
"201-1, AZAMIYAGASAKI, MIYAGASAKI, ONAGAWA-CHO, OSHIKA-GUN, MIYAGI-KEN, JAPAN","201-1, Azamiyagasaki, Miyagasaki, Onagawa-cho, Oshika-gun, Miyagi-ken, Japan",Miyagi-ken,JPN,38.465,141.34167
"NYUTAUNREJIDENSU101 1-14-3, AJYA, NAHA-SHI, OKINAWA,JAPAN","NYUTAUNREJIDENSU 101 1-14-3, AJYA","Naha-shi, Okinawa",JPN,26.21212,127.67845
"5590,OMAEZAKI, OMAEZAKI-SHI, SHIZUOKA, JAPAN",5590 OMAEZAKI,Shizuoka Prefecture,JPN,34.71,138.225
"5590, OMAEZAKI, OMAEZAKI-SHI, SHIZUOKA, JAPAN","5590 OMAEZAKI, OMAEZAKI-SHI, SHIZUOKA",Shizuoka,JPN,34.61667,138.21667
"5590,OMAEZAKI,OMAEZAKI-SHI,SHIZUOKA-KEN, ,JAPAN.","5590 Omaezaki, Omaezaki-shi, Shizuoka-ken -- Shizuoka -- JPN -- 34.58410 -- 138.24361",,,,
"TOPPUWAN SHIKOKU,4-110-1108, KUTANDA, KOCHI-SHI, KOCHI, JAPAN","TOPPUWAN SHIKOKU, 4-110-1108, KUTANDA, KOCHI-SHI, KOCHI",Kochi,JPN,33.55944,133.53017
"2-5-40,SHINHAMACHO,SHIOGAMA-SHI,MIYAGI-KEN,JAPAN","2-5-40, Shinhamacho, Shiogama-shi, Miyagi-ken, Japan",Miyagi,JPN,38.305,141.025
"1794-36, OSHIMA, KUSHIMOTO-CHO, HIGASHIMURO-GUN, WAKAYAMA-KEN, JAPAN","1794-36, Oshima","Kushimoto-cho, Higashimuro-gun",JPN,33.48492,135.76338
"134-10,UKITSU,MUROTO-SHI, KOCHI, JAPAN","134-10, UKITSU, MUROTO-SHI, KOCHI",KOCHI,JPN,33.28748,32.05484
"5627-5, OOAZA-HEDA, KAWAMINAMI-CHOU, KOYU-GUN, MIYAZAKI,JAPAN","5627-5, OOAZA-HEDA, KAWAMINAMI-CHOU, KOYU-GUN, MIYAZAKI",Miyazaki,JPN,31.7261,131.24167
"8-6-42,OBI,NICHINAN-SHI,MIYAZAKI-KEN,JAPAN","8-6-42, OBI, NICHINAN-SHI, MIYAZAKI-KEN",Miyazaki,JPN,31.10736,131.61192
"1-6-15,BENTENCHO, KESENNUMA-SHI, MIYAGI-KEN, JAPAN","1-6-15, Bentencho, Kesennuma-shi, Miyagi-ken","Kesennuma-shi, Miyagi",JPN,38.91,141.5775
"1344-3, TAJIRI, YAIZU-SHI, SHIZUOKA-KEN, JAPAN","1344-3, Tajiri, Yaizu-shi, Shizuoka-ken",Shizuoka,JPN,34.86667,138.2975
"1344-3 Tajiri, Yaizu-shi, Shizuoka-ken, Japan",1344-3 Tajiri,"Yaizu-shi, Shizuoka-ken",JPN,34.7638,138.3263
"1344-3, TAJIRI,YAIZU-SHI, SHIZUOKA, JAPAN","1344-3 Tajiri, Yaizu-shi, Shizuoka -- Shizuoka -- JPN -- 34.86642 -- 138.31641",,,,
"4-11, 2CHOME, SAKANAMACHI, KESENNUMA-SHI, MIYAGI, JAPAN","4-11, 2CHOME, SAKANAMACHI, KESENNUMA-SHI, MIYAGI",Miyagi,JPN,38.93278,141.58278
1-5-7-1 NISHIZAKI ITOMAN-SHI OKINAWA JAPAN,1-5-7-1 Nishizaki,"Itoman-shi, Okinawa",JPN,26.099,127.6745
"2-9-34,SHINHAMA-CHO, SHIOGAMA-SHI, MIYAGI-KEN, JAPAN","2-9-34, Shinhama-cho, Shiogama-shi, Miyagi-ken",Miyagi,JPN,38.2914,141.03357
4-69 KAMIMACHI KUWAGASAKI MIYAKO-SHI IWATE-KEN JAPAN,4-69 Kamimachi Kuwagasaki Miyako-shi,Iwate-ken,JPN,39.63477,141.96252
"65-5, AZA-UETA, TOMIGUSUKU-SHI, OKINAWA-KEN, JAPAN","65-5, AZA-UETA, TOMIGUSUKU-SHI, OKINAWA-KEN -- Okinawa -- JPN -- 26.14833 -- 127.68222",,,,
"280, AZA Daimonzaki, Minato, ISHINOMAKI-SHI, MIYAGI-KEN, JAPAN","280, AZA Daimonzaki, Minato, Ishinomaki-shi, Miyagi-ken",Miyagi,JPN,38.43968,141.30989
"65-5, AZA-UETA, TOMIGUSUKU-SHI, OKINAWA,JAPAN","65-5, Aza-Ueta, Tomigusuku-shi",Okinawa,JPN,26.16,127.655
"15-12,YAMATE-CHO,SUSAKI-SHI,KOCHI,JAPAN","15-12 Yamate-cho, Susaki-shi",Kochi,JPN,32.58833,133.26139
"1-17-29,SHINHAMA-CHO,SHIOGAMA-SHI,MIYAGI,JAPAN","1-17-29, Shinhama-cho, Shiogama-shi, Miyagi",Miyagi,JPN,38.28131,141.02248
"4871-2,NAKAMURA-OTSU, NANGO-CHO, NICHINAN-SHI, MIYAZAKI-KEN, JAPAN","4871-2, Nakamura-Otsu, Nango-cho, Nichinan-shi, Miyazaki-ken",Miyazaki,JPN,31.29718,131.12688
"2-7 BANDAIJIMA, CHUO-KU, NIIGATA-SHI, NIIGATA-KEN, JAPAN","2-7 Bandaijima, Chuo-ku, Niigata-shi, Niigata-ken",Niigata,JPN,37.91789,138.91689
"1-9,NAKAMURA-CHO,OWASE-SHI,MIE-KEN,JAPAN","1-9, Nakamura-cho","Owase-shi, Mie-ken",JP,34.1825,136.265
1-1-25-2830 OMOROMACHI NAHA=SHI OKINAWA JAPAN,1-1-25-2830 Omoromachi,"Naha-shi, Okinawa",JPN,26.215,127.67857
"1-2-20,MARUNOUCHI,KOCHI-SHI,KOCHI,JAPAN","1-2-20, Marunouchi, Kochi-shi, Kochi",Kochi,JPN,33.56,133.53
"161-1-303, HOTARUBASHI-DAI2, LIONS-MANSION, AZA-DAIDO, NAHA-CITY, OKINAWA,JAPAN","161-1-303, Hotarubashi-Dai2, Lions-Mansion, Aza-Daido","Naha-City, Okinawa",JPN,26.21417,127.68167
"2-8, ISHIZUMINATO-CHO, YAIZU-SHI, SHIZUOKA-KEN, JAPAN","2-8, ISHIZUMINATO-CHO, YAIZU-SHI, SHIZUOKA-KEN",Shizuoka,JPN,34.846,138.265
"2-8,ISHIZUMINATO-CHO,YAIZU-SHI, SHIZUOKA-KEN,.JAPAN","2-8, Ishizuminato-cho, Yaizu-shi, Shizuoka-ken -- Shizuoka -- JPN -- 34.88111 -- 138.29778",,,,
"1441-1, HABUCHI, YAIZU-SHI, SHIZUOKA-KEN, JAPAN","1441-1, Habuchi","Yaizu-shi, Shizuoka-ken",JPN,34.86628,138.26153
"1025, SHICHIRUI, MIHONOSEKI-CHO, MATSUE-SHI, SHIMANE, JAPAN","1025, Shichirui, Mihonoseki-cho, Matsue-shi, Shimane",Shimane,JPN,35.43333,133.06667
"218-1, AZA-OU, TAMAGUSUKU, NANJOU-SHI, OKINAWA,JAPAN","218-1, Aza-Ou, Tamagusuku, Nanjou-shi, Okinawa",Okinawa,JPN,26.15283,127.68178
"Kita 3-jo, Nishi 6-chome, Chuo-ku, Sapporo, Hokkaido, JAPAN","Kita 3-jo, Nishi 6-chome, Chuo-ku, Sapporo, Hokkaido",Hokkaido,JPN,43.0635,141.3499
"6109-8,SAKAI,NAKATANE-CHO,KUMAGE-GUN,KAGOSHIMA, JAPAN","6109-8, SAKAI, NAKATANE-CHO, KUMAGE-GUN, KAGOSHIMA",Kagoshima,JPN,30.41357,130.94623
"156,SHIBITACHI,KARAKUWA-CHO,KESENNUMA-SHI,MIYAGI,JAPAN","156, Shibitachi, Karakuwa-cho, Kesennuma-shi, Miyagi",Miyagi,JPN,38.9131,141.64485
"156,SHIBITACHI, KARAKUWACHO, KESENNUMA-SHI,MIYAGI,JAPAN","156 Shibitachi, Karakuwacho, Kesennuma-shi, Miyagi",Miyagi,JPN,38.923,141.578
"9-6,OTEMACHI,AOI-KU,SHIZUOKA-SHI,SHIZUOKA,JAPAN","9-6, Otemachi, Aoi-ku, Shizuoka-shi, Shizuoka",Shizuoka,JPN,34.9763,138.38301
"2301-2, MOTOKOU, MUROTO-SHI, KOCHI, JAPAN","2301-2, Motokou, Muroto-shi, Kochi",Kochi,JPN,33.28,
"41,OOAZA-HOTOJIMA, TSUKUMI-SHI, OITA, JAPAN","41, OOAZA-HOTOJIMA","Tsukumi-shi, Oita",JPN,32.48944,131.84796
"1978, AZA-MUKAIYAMA,SUSAKI, SUSAKI-SHI, KOCHI, JAPAN","1978 AZA-MUKAIYAMA, SUSAKI, SUSAKI-SHI, KOCHI",Kochi,JPN,32.79478,132.9725
"1978 MUKAIYAMA AZA SUSAKI,SUSAKI-SHI,KOCHI,JAPAN",1978 Mukaiyama Aza Susaki,"Susaki-shi, Kochi",JPN,33.39,132.73
"7-6-19 TSUKIJI, NACHIKATSUURA-CHO, HIGASHIMURO-GUN, WAKAYAMA-KEN, JAPAN","7-6-19 TSUKIJI, NACHIKATSUURA-CHO, HIGASHIMURO-GUN, WAKAYAMA-KEN",Wakayama,JPN,33.59443,135.73512
"5-2-35 TSUKIJI, NACHIKATSUURA-CHO, HIGASHIMURO-GUN, WAKAYAMA-KEN, JAPAN","5-2-35 TSUKIJI, NACHIKATSUURA-CHO, HIGASHIMURO-GUN, WAKAYAMA-KEN",Wakayama,JPN,33.675,135.9625
"Betio wharf,
Betio, Tarawa,
Kiribati",Betio wharf,Tarawa,KIR,-0.495,173.01472
"Betio wharf,
Betio, Tarawa
Kiribati","Betio wharf, Betio, Tarawa",Tarawa,KIR,-0.5,172.95
"c/o Ministry of Fisheries & Marine Resources Development (MFMRD), P.O.BOX 64, Bairiki, Tarawa, Kiribati","c/o Ministry of Fisheries & Marine Resources Development (MFMRD), P.O.BOX 64, Bairiki, Tarawa",Tarawa,KIR,-0.49803,173.0364
"C/O MINISTRY OF FISHERIES & MARINERESOURCES DEVELOPMENT (MFMRD)Bairiki, Tarawa, Kiribati",C/O MINISTRY OF FISHERIES & MARINE RESOURCES DEVELOPMENT (MFMRD),"Bairiki, Tarawa",KIR,-0.49198,179.19756
"MFMRD,BAIRIKI,TARAWA","MFMRD, Bairiki",Tarawa,KIR,-1.37445,172.97612
"C/O: Ministry of Fisheries and Ocean Resources Development
Bairiki,
Tarawa","C/O: Ministry of Fisheries and Ocean Resources Development, Bairiki",Tarawa,KIR,-0.65,179.0
"C/O: Ministry of Fisheries and Ocean Resources Development
Bairiki
Tarawa
Republic of Kiribati","C/O: Ministry of Fisheries and Ocean Resources Development, Bairiki, Tarawa",Tarawa,KIR,-1.386555,172.981874
"Betio wharf,
Betio,
Tarawa,
Republic of Kiribati",Betio wharf,"Betio, Tarawa",KIR,-0.48889,175.11
"P.O. BOX 64, BAIRIKI, TARAWA,","P.O. BOX 64, Bairiki, Tarawa",Kiribati,KIR,-0.3075,179.28611
"P.O. BOX 64, BAIRIKI, TARAWA,REP. OF KIRIBATI","P.O. BOX 64, BAIRIKI, TARAWA -- Kiribati -- KIR -- -0.49862 -- -179.19545",,,,
"P.O.BOX.64, BAIRIKI, TARAWA, KIRIBATI","P.O. BOX 64, Bairiki, Tarawa",Kiribati,KIR,-0.45,179.0
"London, Kiritimati
Kiribati","London, Kiritimati -- Kiritimati -- KIR -- 2.022500 -- -157.429167",,,,
"LONDON, KIRITIMATI, KIRIBATI","LONDON, KIRITIMATI","KIRITIMATI, Kiribati",KIR,-2.0,-151.0
"#706 SAEMOONANRO 5-37, JONGNO-GU, SEOUL KOREA",706 Saemoonanro 5-37,"Jongno-gu, Seoul",KOR,37.57,126.9812
"DONGWON INDUSTRIES CO., LTD. /68, Mabang-ro, Seocho-gu, Seoul, Korea","DONGWON INDUSTRIES CO., LTD., 68, Mabang-ro, Seocho-gu, Seoul",Seoul,KOR,37.4913,127.03282
"68 MABANG-RO, SEOCHO-GU, SEOUL, KOREA","68 MABANG-RO, SEOCHO-GU",SEOUL,KOR,37.4825,127.03111
"68, MABANG-RO, SEOCHO-GU, SEOUL, KOREA",68 Mabang-ro,"Seocho-gu, Seoul",KOR,37.48263,127.03171
"2159, Namboosoonhwan-ro, Seocho-gu, Seoul, Korea","2159, Namboosoonhwan-ro, Seocho-gu",Seoul,KOR,37.48483,127.03255
"111, WONYANG-RO, SEO-GU, BUSAN, KOREA",111 Wonyang-ro,Seo-gu,KOR,35.15689,129.0554
"Won Yang Plaza B/D (Rm. 507) 105, WONYANG-RO,SEO-GU,BUSAN,KOREA","Won Yang Plaza B/D (Rm. 507) 105, WONYANG-RO","Seo-gu, Busan",KOR,35.145,129.051
"63 TAEJONG-RO, YEONGDO-GU, BUSAN, KOREA","63 TAEJONG-RO, YEONGDO-GU",Busan,KOR,35.072,129.4019
"30, Godeokbizvalley-ro 6-gil,Gangdong-gu,Seoul,Republic of Korea","30 Godeokbizvalley-ro 6-gil, Gangdong-gu",Seoul,KOR,37.54977,127.1442
"4F, 38, DONGMAK-RO 8-GIL, MAPO-GU, SEOUL, KOREA","4F, 38, Dongmak-ro 8-gil, Mapo-gu",Seoul,KOR,37.553404,126.934083
"Won Yang Plaza B/D (Rm. 507) 105, WONYANG-RO, SEO-GU, BUSAN, KOREA","Won Yang Plaza B/D (Rm. 507) 105, WONYANG-RO, SEO-GU",Busan,KOR,35.16252,129.05845
#90 WONYANG-RO SEO-KU BUSAN KOREA,"90 Wonyang-ro, Seo-gu",Busan,KOR,35.1553,129.1038
"107-39, Tongil Ro,Seodaemun-gu,Seoul, Korea",107-39 Tongil Ro,"Seodaemun-gu, Seoul",KOR,37.56874,126.95659
"107-39, Tongil-Ro, Seodaemun-gu, Seoul, KOREA","107-39, Tongil-Ro, Seodaemun-gu, Seoul",Seoul,KOR,37.57778,126.96583
"107-39, TONGIL-RO, SEODAEMUN-GU, SEOUL, KOREA","107-39 Tongil-ro, Seodaemun-gu",Seoul,KOR,37.56654,126.96532
"2159, NAMBUSUNHWAN-RO, SEOCHO-GU, SEOUL, KOREA",2159 Nambusunhwan-ro,"Seocho-gu, Seoul",KOR,37.48776,127.03074
CLS TRITON ADV+FFA/ 051-6633-161,CLS TRITON ADV+FFA/ 051-6633-161,Providence/State: Not specified,Country (three letter abbreviation): Not specified,,
"Delap Village P.O. Box 1289 Majuro, Republic of the Marshall Islands 96960",Delap Village P.O. Box 1289,Majuro,MH,7.099662,171.380052
"Majuro, Marshall Islands 96960P.O. Box 321","Majuro, Marshall Islands 96960 P.O. Box 321",Majuro/Marshall Islands,MHL,7.095,171.38
"Majuro, Marshall IslandsP.O. Box 321","Majuro, Marshall Islands P.O. Box 321",Majuro/Marshall Islands,MHL,7.09216,171.38
"P.O. Box 321Majuro, Marshall Islands 96960",P.O. Box 321,"Majuro, Marshall Islands",MHL,7.1,171.383333
"Delap VillageP.O. Box 1289 Majuro, Republic of the Marshall Islands",Delap Village P.O. Box 1289,Majuro,MHL,7.071122,171.320014
"Delap Village, P.O. Box 1289, Majuro, Republic of Marshall Islands MH 96960","Delap Village, P.O. Box 1289",Majuro,MHL,7.1,171.388889
"Majuro, Marshall IslandsP.O. Box 1138","Majuro, Marshall Islands P.O. Box 1138","Majuro, Marshall Islands",MHL,7.0869,171.38059
"Delap VillageP.O. Box 1289 Majuro, Republic of the Marshall Islands 96960",Delap Village P.O. Box 1289,Majuro,MHL,7.086111,171.365
"BOE DISTRICT,REPUBLIC OF NAURU",BOE DISTRICT,Nauru,NRU,-0.525,166.92
"BOE DISTRICT, REPUBLIC OF NAURU","BOE DISTRICT, REPUBLIC OF NAURU",Nauru,NRU,-0.525,166.91
MAIN BUILDING ANIBARE NAURU,MAIN BUILDING ANIBARE,Nauru,NRU,-0.52,166.92
MAIN BUILDING ANIBARE DISTRICT NAURU,MAIN BUILDING ANIBARE DISTRICT,Nauru,NRU,-0.52,166.93
"MAIN OFFICE,ANIBARE DISTRICT,
REPUBLIC OF NAURU","MAIN OFFICE, ANIBARE DISTRICT",Nauru,NRU,-0.5238,166.928
"P.O BOX 404, Anibare District, Republic of Nauru","P.O BOX 404, Anibare District",Nauru,NRU,-0.525,166.934444
"BOE DISTRICT, NAURU",BOE DISTRICT,Nauru,NRU,-0.522775,166.925491
"Ewa District, Nauru","Ewa District, Nauru",Nauru,NRU,-0.52,166.92
Ewa District Nauru Island,Ewa District Nauru Island,Nauru,NRU,-0.525,166.93
"EWA DISTRICT, NAURU",EWA DISTRICT,Nauru,NAU,-0.523048,166.928513
"Main office, Anibare District, Republic of Nauru","Main office, Anibare District","Yaren District, Nauru",NRU,-0.5458,166.93
"1094-A North Bay Blvd., Navotas City",1094-A North Bay Blvd.,Navotas City,PHL,14.65256,120.94418
"RD Corporate Center, No. 96 Gov. M.C. Cuenco Avenue, Banilad, Cebu City, Philippines","RD Corporate Center, No. 96 Gov. M.C. Cuenco Avenue, Banilad, Cebu City",Cebu,PHL,10.32,123.9
"1094-A NORTH BAY BLVD, NAVOTAS CITY, PHILIPPINES",1094-A North Bay Blvd,Navotas City,PHL,14.655,120.93778
"The Venue Building, Unit 301-B, Lot C-5 Commercial Area, Subic Bay Gateway Park, Subic Bay Freeport Zone, Zambales, Philippines","The Venue Building, Unit 301-B, Lot C-5 Commercial Area, Subic Bay Gateway Park, Subic Bay Freeport Zone",Zambales,PHL,14.84356,120.28476
"PUROK ESLOME, MAASIM, SARANGANI PROVINCE, PHILIPPINES","PUROK ESLOME, MAASIM, SARANGANI PROVINCE",SARANGANI,PHL,5.05222,125.1775
"1094-A NORTH BAY BLVD., NAVOTAS CITY",1094-A North Bay Blvd.,Navotas City,PHL,14.635,120.94333
"CABU, BAWING, GENERAL SANTOS CITY, PHILIPPINES","CABU, BAWING, GENERAL SANTOS CITY",South Cotabato,PHL,6.0995,125.1735
"PUROK ESLOME, MAASIM, SARANGANI PROVINCE","PUROK ESLOME, MAASIM, SARANGANI PROVINCE",Province of Sarangani,PHL,5.06,125.1775
"Cabu, Bawing, General Santos City, Philippines","Cabu, Bawing, General Santos City",South Cotabato,PHL,6.095,125.00722
"The Venue Building, Unit 301-B Lot C-5, Commercial Area, Subic Bay Gateway Park, Subic Bay Freeport Zone","The Venue Building, Unit 301-B Lot C-5, Commercial Area, Subic Bay Gateway Park",Zambales,PHL,14.83502,120.28618
"P.O BOX 1225, LAE, MOROBE PROVINCEPAPUA NEW GUINEA","P.O BOX 1225, Lae, Morobe Province","Lae, Morobe Province",PNG,-6.7311,146.992418
"P.O Box 1255, Section 227 Lot 1, Speybank St, Lae CityMorobe Province, Papua New Guinea","P.O Box 1255, Section 227 Lot 1, Speybank St, Lae City",Morobe Province,PNG,-6.72642,146.99735
"Section 227, Lot 1, Speybank St, Lae CityPapua New Guinea","Section 227, Lot 1, Speybank St, Lae City",Morobe Province,PNG,-6.7275,147.0
"PO BOX 1255, LAE, MOROBE PROVINCE PAPUA NEW GUINEA",PO BOX 1255,"Lae, Morobe Province",PNG,-6.73333,147.2
PO BOX 1255LAEMOROBE PROVINCEPAPUA NEW GUINEA,PO BOX 1255,Lae Morobe Province,PNG,-6.73,146.99
"P.O. BOX 262 GORDONS NATIONAL CAPITAL DISTRICT, PAPUA NEW GUINEA",P.O. BOX 262 Gordons,National Capital District,PNG,-9.443034,147.179841
"P.O Box 262, Port MoresbyNational Capital DistrictPapua New Guinea","P.O Box 262, Port Moresby",National Capital District,PNG,-9.443333,147.18
"P.O. BOX 262, GORDONS, NATIONAL CAPITAL DISTRICT, PAPUA NEW GUINEA","P.O. BOX 262, GORDONS",National Capital District,PNG,-9.443611,147.18
"P.O. BOX 262, PORT MORESBY. NATIONAL CAPITAL DISTRICT, PAPUA NEW GUINEA","P.O. BOX 262, PORT MORESBY",National Capital District,PNG,-9.44315,147.18021
P. O Box 89 Honiara Solomon Islands,P. O Box 89 Honiara,Guadalcanal Province,SLB,-9.4294,160.6333
"P.O Box 2211, Honiara, Solomon Islands","P.O Box 2211, Honiara",Guadalcanal,SLB,-9.429998,159.950896
"CALLE LOMA LINDA, NO.251, COLONIA SAN BENITOSAN SALVADOR, EL SALVADOR","CALLE LOMA LINDA, NO.251, COLONIA SAN BENITO",San Salvador,SLV,13.69372,-89.20375
"Fongafale Road, Alapi, Funafuti, Tuvalu","Fongafale Road, Alapi, Funafuti",Funafuti,TUV,-5.64406,179.19482
"ALAPI, FUNAFUTI, TUVALU","ALAPI, FUNAFUTI",FUNAFUTI/TUVALU,TUV,-7.10972,179.19444
"No.23,Jhonghau Rd.,Liouciou Township,Pingtung County 92942,Taiwan(R.O.C)","No. 23, Jhonghau Rd., Liouciou Township, Pingtung County 92942",Pingtung County,TWN,22.24815,120.39393
"No.23, Jhonghua Rd., Liouciou Township, Pingtung County 92942, Taiwan (R.O.C.)","No.23, Jhonghua Rd., Liouciou Township, Pingtung County 92942",Pingtung County,TWN,23.27856,120.72876
"No.124-32, Zhenhai Rd., Donggang Township, Pingtung County 92845, Taiwan (R.O.C.)","No.124-32, Zhenhai Rd., Donggang Township, Pingtung County 92845",Pingtung County,TWN,22.41789,120.4661
"No.53, Lane 3, Heping Rd., Liouciou Township, Pingtung County 92942, Taiwan(R.O.C.)","No. 53, Lane 3, Heping Rd., Liouciou Township, Pingtung County 92942",Pingtung County,TWN,22.11582,120.49357
"No. 971-6, Wufang Rd., Xinyuan Township, Pingtung County 932019 , Taiwan (R.O.C.)","No. 971-6, Wufang Rd., Xinyuan Township, Pingtung County 932019",Pingtung County,TWN,22.72917,120.4739
"No. 15, Ln. 91, Yanhai Rd., Donggang Township, Pingtung County 928007 , Taiwan (R.O.C.)","No. 15, Ln. 91, Yanhai Rd., Donggang Township, Pingtung County 928007",Pingtung County,TWN,22.43516,120.46629
"No. 3, Huanmei 8th St., Donggang Township, Pingtung County 928010 , Taiwan (R.O.C.)","No. 3, Huanmei 8th St., Donggang Township, Pingtung County 928010",Pingtung County,TWN,22.38403,120.4578
"No.2-8, Zhonghua Rd., Liuqiu Township, Pingtung County 929, Taiwan (R.O.C.)","No.2-8, Zhonghua Rd., Liuqiu Township, Pingtung County 929",Pingtung County,TWN,22.05628,120.44075
"No. 2-8, Zhonghua Rd., Liuqiu Township, Pingtung County 929002 , Taiwan (R.O.C.)","No. 2-8, Zhonghua Rd., Liuqiu Township, Pingtung County 929002",Pingtung County,TWN,22.30833,120.39389
"No. 170-3, Zhongzheng Rd., Liuqiu Township, Pingtung County 929003 , Taiwan (R.O.C.)","No. 170-3, Zhongzheng Rd., Liuqiu Township, Pingtung County 929003",Pingtung,TWN,22.32701,120.36056
"1F., No. 17, Yugang N. 1st Rd., Qianzhen Dist., Kaohsiung City 806043 , Taiwan (R.O.C.)","1F., No. 17, Yugang N. 1st Rd., Qianzhen Dist., Kaohsiung City 806043",Kaohsiung City,TWN,22.61452,120.31616
"No.18, Ln. 117, Zhenhai Rd., Donggang Township, Pingtung County 928003, Taiwan (R.O.C.)","No.18, Ln. 117, Zhenhai Rd.","Donggang Township, Pingtung County",TWN,22.46667,120.45
"No.42-1, Jhonghua Rd., Liouciou Township, Pingtung County 929, Taiwan (R.O.C.)","No.42-1, Jhonghua Rd., Liouciou Township, Pingtung County 929",Pingtung County,TWN,22.1289,120.43125
"No.169-12, Fuxing Rd., Liuqiu Shiang, Pingtung County 92942, Taiwan(R.O.C)","No.169-12, Fuxing Rd., Liuqiu Shiang, Pingtung County 92942",Pingtung County,TWN,22.82176,120.38855
"No.169-11, Fuxing Rd., Liuqiu Township, Pingtung County 929002, Taiwan (R.O.C.)","No. 169-11, Fuxing Rd., Liuqiu Township, Pingtung County 929002",Pingtung County,TWN,22.3348,120.39242
"15F., No.301, Zhizhen Rd., Zuoying Dist., Kaohsiung City 813, Taiwan (R.O.C.)","15F., No.301, Zhizhen Rd., Zuoying Dist., Kaohsiung City 813","Kaohsiung City, Taiwan",TWN,22.70436,120.32723
"No. 88, Sanhe 1st Rd., Donggang Township, Pingtung County 928007 , Taiwan (R.O.C.)","No. 88, Sanhe 1st Rd., Donggang Township, Pingtung County 928007",Pingtung County,TWN,22.47472,120.4551
"No.42-1, Mingzhi Rd., Donggang Township, Pingtung County 92842, Taiwan (R.O.C.)","No.42-1, Mingzhi Rd., Donggang Township, Pingtung County 92842",Pingtung County,TWN,22.51139,120.44861
"15F., No.301, Zhizhen Rd., Zuoying Dist., Kaohsiung City 813002, Taiwan (R.O.C.)","15F., No.301, Zhizhen Rd., Zuoying Dist., Kaohsiung City 813002",Kaohsiung City / Taiwan,TWN,22.62937,120.27446
"No. 42-1, Mingzhi Rd., Donggang Township, Pingtung County 928, Taiwan (R.O.C.)","No. 42-1, Mingzhi Rd., Donggang Township, Pingtung County 928",Pingtung County,TWN,22.455,120.45417
"No. 7, Aly. 27, Ln. 507, Sec. 2, Zhongzheng Rd., Donggang Township, Pingtung County928010, Taiwan (R.O.C.)","No. 7, Aly. 27, Ln. 507, Sec. 2, Zhongzheng Rd., Donggang Township, Pingtung County",Pingtung,TWN,22.45833,120.44
"No.48, Yanping St., Gushan District, Kaohsiung City 804, Taiwan (R.O.C.)","No. 48, Yanping St.","Gushan District, Kaohsiung City 804",TWN,22.62944,120.28267
"No.60-1, Zhongxiao Rd., Liuqiu Township, Pingtung County 929, Taiwan (R.O.C.)","No.60-1, Zhongxiao Rd., Liuqiu Township, Pingtung County 929",Pingtung County,TWN,22.3215,120.38775
"1F.,No.23, Guangfu Rd., Xinyuan Township, Pingtung County 932014 , Taiwan (R.O.C.)","1F., No. 23, Guangfu Rd., Xinyuan Township, Pingtung County 932014",Pingtung County,TWN,22.5275,120.5065
"No. 17-10, Guangfu Rd., Xinyuan Township, Pingtung County 932014 , Taiwan (R.O.C.)","No. 17-10, Guangfu Rd., Xinyuan Township, Pingtung County 932014",Pingtung County,TWN,22.6269,120.53301
"No.96,Ren-ai Rd.,Liouciou Township,Pingtung County 92942,Taiwan","No. 96, Ren-ai Rd., Liouciou Township",Pingtung County,TWN,22.39,120.39
"No.23, Ln. 3, Zhongzheng Rd., Liuqiu Township, Pingtung County 92942, Taiwan (R.O.C.)","No.23, Ln. 3, Zhongzheng Rd., Liuqiu Township, Pingtung County 92942",Pingtung County,TWN,22.42,120.48
"No.13-1, Ln. 7, Sanmin Rd., Liuqiu Township, Pingtung County 92941, Taiwan","No.13-1, Ln. 7, Sanmin Rd.","Liuqiu Township, Pingtung County",TWN,22.3598,120.28675
"No. 41, Xinxing 3rd St., Donggang Township, Pingtung County 928006 , Taiwan (R.O.C.)","No. 41, Xinxing 3rd St., Donggang Township, Pingtung County 928006",Pingtung County,TWN,22.46111,120.45
"No. 15, Zhonghua Rd., Liuqiu Township, Pingtung County 929002 , Taiwan (R.O.C.)","No. 15, Zhonghua Rd., Liuqiu Township, Pingtung County 929002",Pingtung County,TWN,22.34856,120.44852
"No.98, Hefeng St., Qianzhen Dist., Kaohsiung City 80668, Taiwan","No.98, Hefeng St., Qianzhen Dist., Kaohsiung City 80668",Kaohsiung City / Taiwan,TWN,22.61278,120.29567
"No.98, Hefong St., Cianjhen Dist., Kaohsiung City 80668, Taiwan","No. 98, Hefong St., Cianjhen Dist., Kaohsiung City 80668",Kaohsiung City / Taiwan,TWN,22.61128,120.28374
"No.396, Xingdong Rd., Donggang Township, Pingtung County 928, Taiwan (R.O.C.)","No.396, Xingdong Rd., Donggang Township, Pingtung County 928",Pingtung County,TWN,22.47631,120.46029
"No.26, Yansin Rd., Sinyuan Township, Pingtung County 93248, Taiwan","No. 26, Yansin Rd.","Sinyuan Township, Pingtung County",TWN,22.20833,120.39
"No.35, Zhongshan Rd., Liuqiu Township, Pingtung County 92941, Taiwan (R.O.C.)","No.35, Zhongshan Rd., Liuqiu Township, Pingtung County 92941",Pingtung County,TWN,22.20417,120.39306
"No.26. Ln. 81, Shanban Rd., Liuqiu Township, Pingtung County 92942, Taiwan (R.O.C.)","No.26, Ln. 81, Shanban Rd.","Liuqiu Township, Pingtung County",TWN,22.31472,120.37312
"No.10, Ln. 38, Mingli Rd., Donggang Township, Pingtung County 92842, Taiwan","No.10, Ln. 38, Mingli Rd., Donggang Township, Pingtung County 92842",Pingtung County,TWN,22.34754,120.45539
"No. 4-18, Zhonghua Rd., Liuqiu Township, Pingtung County 929002 , Taiwan (R.O.C.)","No. 4-18, Zhonghua Rd., Liuqiu Township, Pingtung County 929002",Pingtung County,TWN,22.34,120.42944
"No.51, Lane 1, Jhongshan Rd.,Benfu village, liouciou Township, Pingtung County, Taiwan(R.O.C)","No.51, Lane 1, Jhongshan Rd., Benfu village, Liouciou Township, Pingtung County, Taiwan (R.O.C)",Pingtung County,TWN,23.29416,120.43064
"No.36-19, Zhenhai Rd., Donggang Township, Pingtung County 92845, Taiwan (R.O.C.)","No.36-19, Zhenhai Rd., Donggang Township, Pingtung County 92845",Pingtung County,TWN,22.4755,120.45333
"No.12, Ln. 16, Anyu Rd., Donggang Township, Pingtung County 92845, Taiwan (R.O.C.)","No.12, Ln. 16, Anyu Rd., Donggang Township, Pingtung County 92845",Pingtung County,TWN,22.433,120.459
"No. 9, Huanmei 3rd St., Donggang Township, Pingtung County 928010 , Taiwan (R.O.C.)","No. 9, Huanmei 3rd St., Donggang Township, Pingtung County 928010",Pingtung County,TWN,22.45198,120.44974
"No. 169-38, Fuxing Rd., Liuqiu Township, Pingtung County 929002 , Taiwan (R.O.C.)","No. 169-38, Fuxing Rd., Liuqiu Township, Pingtung County 929002",Pingtung County,TWN,23.27,120.455
"3F., No.3, Yugang E. 2nd Rd., Qianzhen Dist., Kaohsiung City 806, Taiwan (R.O.C.)","3F., No.3, Yugang E. 2nd Rd., Qianzhen Dist., Kaohsiung City 806, Taiwan (R.O.C.)",Kaohsiung City,TWN,22.5664,120.29433
"3F., No.3, Yugang E. 2nd Rd., Qianzhen Dist., Kaohsiung City 80672, Taiwan (R.O.C.)","3F., No.3, Yugang E. 2nd Rd., Qianzhen Dist., Kaohsiung City 80672 -- Kaohsiung City -- TWN -- 22.57730 -- 120.29681",,,,
"Rm.307,  3F. No.3, Yugang E.2nd Rd.,Qianzhen Dist., Kaohsiung City 80672, Taiwan (R.O.C.)","Rm.307, 3F, No.3, Yugang E.2nd Rd., Qianzhen Dist., Kaohsiung City 80672",Kaohsiung City,TWN,22.60342,120.28278
"No.282-7, Yanhai Rd., Donggang Township, Pingtung County 928, Taiwan (R.O.C.)","No.282-7, Yanhai Rd., Donggang Township, Pingtung County 928",Pingtung County,TWN,22.444063,120.458
"No.2-3, Zhongzheng Rd., Liuqiu Township, Pingtung County 92942, Taiwan(R.O.C.)","No.2-3, Zhongzheng Rd., Liuqiu Township, Pingtung County 92942",Pingtung County,TWN,22.3875,120.38972
"No.112, Gongzheng Rd., Xinyuan Township, Pingtung County 93248, Taiwan (R.O.C.)","No.112, Gongzheng Rd.","Xinyuan Township, Pingtung County",TWN,22.56667,120.655
"No. 112, Gongzheng Rd., Xinyuan Township, Pingtung County 932014 , Taiwan (R.O.C.)","No. 112, Gongzheng Rd., Xinyuan Township, Pingtung County 932014",Pingtung County,TWN,22.4822,120.57968
"No.79-7, Sanmin Rd., Liuqiu Township, Pingtung County 929, Taiwan (R.O.C.)","No.79-7, Sanmin Rd., Liuqiu Township, Pingtung County 929",Pingtung County,TWN,22.60833,120.4
"No. 50-2, Zhongxiao Rd., Liuqiu Township, Pingtung County 929002 , Taiwan (R.O.C.)","No. 50-2, Zhongxiao Rd., Liuqiu Township, Pingtung County 929002",Pingtung County,TWN,22.32,120.42
"No. 50, Mingli Rd., Donggang Township, Pingtung County 928004 , Taiwan (R.O.C.)","No. 50, Mingli Rd., Donggang Township, Pingtung County 928004",Pingtung County,TWN,22.50728,120.45384
"No.18,Lane 7, Sanmin Rd., Liouciou Township, Pingtung County 92941, Taiwan.","No. 18, Lane 7, Sanmin Rd., Liouciou Township, Pingtung County 92941",Pingtung,TWN,22.31345,120.52873
"No.39, Aly. 80, Ln. 100, Sec. 1, Zhongzheng Rd., Donggang Township, Pingtung County 928, Taiwan (R.O.C.)","No.39, Aly. 80, Ln. 100, Sec. 1, Zhongzheng Rd., Donggang Township, Pingtung County 928",Pingtung County,TWN,22.46635,120.46045
"No.40, Aly. 80, Ln. 100, Sec. 1, Jhongjheng Rd., Donggang Township, Pingtung County 928004, Taiwan (R.O.C.)","No.40, Aly. 80, Ln. 100, Sec. 1, Jhongjheng Rd., Donggang Township, Pingtung County 928004",Pingtung County,TWN,22.53617,120.45483
"No.40, Aly. 80, Ln. 100, Sec. 1, Zhongzheng Rd., Donggang Township, Pingtung County 92842, Taiwan (R.O.C.)","No.40, Aly. 80, Ln. 100, Sec. 1, Zhongzheng Rd., Donggang Township, Pingtung County 92842",Pingtung County,TWN,22.525,120.445
"No. 40, Aly. 80, Ln. 100, Sec. 1, Zhongzheng Rd., Donggang Township, Pingtung County  , Taiwan (R.O.C.)","No. 40, Aly. 80, Ln. 100, Sec. 1, Zhongzheng Rd., Donggang Township, Pingtung County",Pingtung County,TWN,22.41567,120.45523
"No.101, Yanhai Rd., Donggang Township, Pingtung County 92849, Taiwan (R.O.C.)","No.101, Yanhai Rd., Donggang Township, Pingtung County 92849",Pingtung County,TWN,22.47,120.46667
"No.46, Ren-ai Rd., Liouciou Township, Pingtung County 929, Taiwan","No. 46, Ren-ai Rd., Liouciou Township, Pingtung County 929",Pingtung County,TWN,22.76,120.41278
"5F., No.139, Hou'an Rd., Qianzhen Dist., Kaohsiung City 806, Taiwan (R.O.C.)","5F., No.139, Hou'an Rd., Qianzhen Dist., Kaohsiung City 806, Taiwan (R.O.C.)",Kaohsiung,TWN,22.61114,120.30313
"2F., No.3, Yugang E. 2nd Rd., Qianzhen Dist., Kaohsiung City 806, Taiwan (R.O.C.)","2F., No. 3, Yugang E. 2nd Rd., Qianzhen Dist., Kaohsiung City 806",Kaohsiung City,TWN,22.61028,120.28472
"No.4-4, Zhonghua Rd., Liuqiu Township, Pingtung County 92942, Taiwan (R.O.C.)","No.4-4, Zhonghua Rd., Liuqiu Township, Pingtung County 92942",Pingtung County,TWN,23.32783,120.44277
"No.77-2, Sanmin Rd., Liouciou Township, Pingtung County 929, Taiwan (R.O.C.)","No.77-2, Sanmin Rd., Liouciou Township, Pingtung County 929",Pingtung County,TWN,22.54206,120.24628
"Room 423,4F.,No.3 Yu Kang E. 2nd Rd., Chien Chen District, Kaohsiung City, 80672, Taiwan(R.O.C.)","Room 423, 4F., No. 3 Yu Kang E. 2nd Rd., Chien Chen District, Kaohsiung City, 80672",Kaohsiung City,TWN,22.61178,120.30852
"No. 204, Bo'ai St., Donggang Township, Pingtung County 928001 , Taiwan (R.O.C.)","No. 204, Bo'ai St., Donggang Township, Pingtung County 928001",Pingtung County,TWN,22.40876,120.46208
"No.60, Zhongzheng Rd., Liuqiu Township, Pingtung County 92942, Taiwan (R.O.C.)","No.60, Zhongzheng Rd., Liuqiu Township, Pingtung County 92942",Pingtung County,TWN,22.30955,120.39305
"No. 98, Hefeng St., Qianzhen Dist., Kaohsiung City 806040 , Taiwan (R.O.C.)","No. 98, Hefeng St., Qianzhen Dist., Kaohsiung City 806040",Kaohsiung City / Taiwan,TWN,22.61361,120.3175
"No. 53, Minzu Rd., Liuqiu Township, Pingtung County 929001 , Taiwan (R.O.C.)","No. 53, Minzu Rd., Liuqiu Township, Pingtung County 929001",Pingtung County,TWN,23.32625,119.63025
"No.53, Minzu Rd., Liouciou Township, Pingtung County 92941, Taiwan","No.53, Minzu Rd., Liouciou Township, Pingtung County 92941",Pingtung County,TWN,23.26277,120.39694
"No. 93-9, Bo'ai St., Donggang Township, Pingtung County 928002 , Taiwan (R.O.C.)","No. 93-9, Bo'ai St., Donggang Township, Pingtung County 928002",Pingtung County,TWN,22.475,120.44833
"No.11, Ln. 8, Mingde 2nd St., Donggang Township, Pingtung County 92842, Taiwan (R.O.C.)","No.11, Ln. 8, Mingde 2nd St., Donggang Township, Pingtung County 92842",Pingtung,TWN,22.42978,120.45582
"No. 48, Zhongzheng Rd., Liuqiu Township, Pingtung County 929002 , Taiwan (R.O.C.)","No. 48, Zhongzheng Rd., Liuqiu Township, Pingtung County 929002",Pingtung County,TWN,22.35234,120.3993
"No.44-2, Heping Rd., Liouciou Township, Pingtung County 929, Taiwan (R.O.C.)","No.44-2, Heping Rd., Liouciou Township, Pingtung County 929",Pingtung County,TWN,22.005,120.48972
"No.44-2, Heping Rd., Liuqiu Township, Pingtung County 92942, Taiwan (R.O.C.)","No.44-2, Heping Rd., Liuqiu Township, Pingtung County 92942",Pingtung County,TWN,22.3631,120.38457
"No.222, Xinsheng 3rd Rd., Donggang Township, Pingtung County 92844, Taiwan (R.O.C.)","No.222, Xinsheng 3rd Rd.","Donggang Township, Pingtung County",TWN,22.46325,120.45588
"No.222, Xinsheng 3rd Rd., Donggang Township, Pingtung County 928, Taiwan (R.O.C.)","No.222, Xinsheng 3rd Rd., Donggang Township, Pingtung County 928",Pingtung County,TWN,22.43221,120.4547
"No. 50, Zhongxiao Rd., Liuqiu Township, Pingtung County 929002 , Taiwan (R.O.C.)","No. 50, Zhongxiao Rd., Liuqiu Township, Pingtung County 929002",Pingtung County,TWN,22.01849,120.41551
"No. 116, Bo'ai St., Donggang Township, Pingtung County 928001 , Taiwan (R.O.C.)","No. 116, Bo'ai St.","Donggang Township, Pingtung County",TWN,22.4403,120.4455
"13F., No. 2, Ln. 555, Dexian Rd., Nanzi Dist., Kaohsiung City 811610 , Taiwan (R.O.C.)","13F., No. 2, Ln. 555, Dexian Rd., Nanzi Dist., Kaohsiung City 811610",Kaohsiung,TWN,22.63417,120.30847
"No.153, Sanmin Rd., Liuqiu Township, Pingtung County 92943, Taiwan (R.O.C.)","No. 153, Sanmin Rd., Liuqiu Township, Pingtung County 92943 -- Pingtung County -- TWN -- 22.30235 -- 120.45790",,,,
"No.29,Chongming 1st.,Pingtung City,Pingtung County 90071,Taiwan","No.29, Chongming 1st., Pingtung City",Pingtung County,TWN,22.5086,120.48014
"No. 23, Ln. 133, Xinji St., Donggang Township, Pingtung County 928001, Taiwan (R.O.C.)","No. 23, Ln. 133, Xinji St., Donggang Township, Pingtung County 928001",Pingtung County,TWN,22.55667,120.4553
"No.82, Fuyu 3rd Rd., Donggang Township, Pingtung County 92845, Taiwan (R.O.C.)","No.82, Fuyu 3rd Rd., Donggang Township, Pingtung County 92845",Pingtung County,TWN,22.5,120.4
"No.6-4, Zhonghua Rd., Liuqiu Township, Pingtung County 92942, Taiwan (R.O.C.)","No.6-4, Zhonghua Rd., Liuqiu Township, Pingtung County 92942",Pingtung County,TWN,22.34223,120.38843
"No. 170, Fuyu 3rd Rd., Donggang Township, Pingtung County 928003 , Taiwan (R.O.C.)","No. 170, Fuyu 3rd Rd., Donggang Township, Pingtung County 928003",Pingtung County,TWN,22.52,120.45
"No.29-2, Binhai 2nd Rd., Gushan Dist., Kaohsiung City 80443, Taiwan (R.O.C.)","No.29-2, Binhai 2nd Rd., Gushan Dist., Kaohsiung City 80443",Kaohsiung City / Taiwan,TWN,22.61257,120.28758
"No.111, Zhongzheng Rd., Liuqiu Township, Pingtung County 92942, Taiwan (R.O.C.)","No. 111, Zhongzheng Rd., Liuqiu Township, Pingtung County 92942",Pingtung County,TWN,22.29738,120.35845
"Rm.319,3F.,No.3, Yugang E. 2nd Rd.,Qianzhen Dist., Kaohsiung City 806, Taiwan (R.O.C.)","Rm.319, 3F., No. 3, Yugang E. 2nd Rd., Qianzhen Dist., Kaohsiung City 806",Kaohsiung City,TWN,22.6016,120.30475
"Rm. 311, 3F., No.3, Yugang E. 2nd Rd., Cianjhen Dist., Kaohsiung City 80672, Taiwan","Rm. 311, 3F., No.3, Yugang E. 2nd Rd., Cianjhen Dist.","Kaohsiung City, Taiwan",TWN,22.615,120.3
"Rm. 311, 3F., No.3, Yugang E. 2nd Rd., Qianzhen Dist., Kaohsiung City 80672, Taiwan (R.O.C.)","Rm. 311, 3F., No. 3, Yugang E. 2nd Rd., Qianzhen Dist., Kaohsiung City 80672",Kaohsiung City,TWN,22.60926,120.28259
"No.3-1, Zhongxing Rd., Liuqiu Township, Pingtung County 92942, Taiwan","No.3-1, Zhongxing Rd., Liuqiu Township, Pingtung County 92942",Pingtung,TWN,22.25,120.41
"No.133-1, Sanmin Rd., Liouciou Township, Pingtung County 929, Taiwan","No.133-1, Sanmin Rd., Liouciou Township, Pingtung County 929",Pingtung County,TWN,22.27123,120.54534
"No.60, Jhongjheng Rd., Liouciou Township, Pingtung County 929, Taiwan (R.O.C.)","No.60, Jhongjheng Rd., Liouciou Township, Pingtung County 929",Pingtung County,TWN,23.33355,120.47425
"No.65, Yugang Rd., Qianzhen Dist., Kaohsiung City 806, Taiwan (R.O.C.)","No. 65, Yugang Rd., Qianzhen Dist., Kaohsiung City 806",Kaohsiung,TWN,22.625,120.30351
"No.196, Shiye Rd., Qianzhen Dist., Kaohsiung City 80672, Taiwan (R.O.C.)","No.196, Shiye Rd., Qianzhen Dist., Kaohsiung City 80672",Kaohsiung City / Taiwan (R.O.C.),TWN,22.611,120.30125
"1F., No. 4, Guangfu Rd., Xinyuan Township, Pingtung County 932014 , Taiwan (R.O.C.)","1F., No. 4, Guangfu Rd., Xinyuan Township, Pingtung County 932014",Pingtung County,TWN,22.66,120.40667
"No. 221-2, Sanmin Rd. Liuqiu Township, Pingtung County 929001 , Taiwan (R.O.C.)","No. 221-2, Sanmin Rd. Liuqiu Township, Pingtung County 929001",Pingtung,TWN,22.2377,120.38634
"No. 78, Chaolong Rd., Donggang Township, Pingtung County 928002 , Taiwan (R.O.C.)","No. 78, Chaolong Rd., Donggang Township, Pingtung County 928002",Pingtung County,TWN,22.4483,120.44588
"No.12, Lane 43, Anyu Rd., Jhenhai Village Donggang Township, Pingtung County Taiwan(R.O.C.)","No.12, Lane 43, Anyu Rd., Jhenhai Village Donggang Township, Pingtung County",Pingtung,TWN,22.50667,120.44278
"No. 6, Ln. 118, Jiayu St., Donggang Township, Pingtung County 928005 , Taiwan (R.O.C.)","No. 6, Ln. 118, Jiayu St., Donggang Township, Pingtung County 928005",Pingtung County,TWN,22.36296,120.45719
"No. 128-16, Ren''ai Rd., Liuqiu Township, Pingtung County 929002 , Taiwan (R.O.C.)","No. 128-16, Ren'ai Rd., Liuqiu Township, Pingtung County 929002",Pingtung County,TWN,22.11819,120.4465
"No.5, Aly. 9, Ln. 128, Jiasin Rd., Donggang Township, Pingtung County 92848, Taiwan","No.5, Aly. 9, Ln. 128, Jiasin Rd., Donggang Township, Pingtung County 92848",Pingtung County,TWN,22.42167,120.455
"4F., No.29-1, Tianlun St., Qianzhen Dist., Kaohsiung City 80666, Taiwan (R.O.C.)","4F., No.29-1, Tianlun St., Qianzhen Dist., Kaohsiung City 80666",Kaohsiung City,TWN,22.5908,120.30863
"No.211-6, Zhongzheng Rd., Liuqiu Township, Pingtung County 929, Taiwan (R.O.C.)","No.211-6, Zhongzheng Rd., Liuqiu Township, Pingtung County 929",Pingtung County,TWN,22.3281,120.3289
"11F.-3, No.247, Minsheng 1st Rd., Xinxing Dist., Kaohsiung City 80046, Taiwan","11F.-3, No.247, Minsheng 1st Rd., Xinxing Dist., Kaohsiung City 80046",Kaohsiung City,TWN,22.62888,120.30138
"11F.-3, No.247, Minsheng 1st Rd., Xinxing Dist., Kaohsiung City 80046, Taiwan (R.O.C.)","11F.-3, No.247, Minsheng 1st Rd., Xinxing Dist., Kaohsiung City 80046","Kaohsiung City, Kaohsiung",TWN,22.62389,120.30139
"No. 309, Dadong Rd., Donggang Township, Pingtung County 928011 , Taiwan (R.O.C.)","No. 309, Dadong Rd., Donggang Township, Pingtung County 928011",Pingtung County,TWN,22.531,120.455
"No. 82, Lizuo Rd., Linbian Township, Pingtung County ,Taiwan (R.O.C.)","No. 82, Lizuo Rd., Linbian Township, Pingtung County",Pingtung County,TWN,22.52917,120.56983
"No.20, Lane 1, Heping Rd., Liouciou Township, Pingtung Count 929, Taiwan (R.O.C.)","No.20, Lane 1, Heping Rd., Liouciou Township, Pingtung Count 929",Pingtung County,TWN,22.0922,120.5512
"No.54-1, Chaolong Rd., Donggang Township, Pingtung County 92844, Taiwan (R.O.C.)","No.54-1, Chaolong Rd., Donggang Township, Pingtung County 92844",Pingtung County,TWN,22.4137,120.44715
"No.36, Ln. 176, Nanzheng 2nd Rd., Fengshan Dist., Kaohsiung City 83085, Taiwan (R.O.C.)","No. 36, Ln. 176, Nanzheng 2nd Rd.","Fengshan Dist., Kaohsiung City 83085",TWN,22.595,120.35
"Room 323, 3F., No.3, Yugang E. 2nd Rd., Cianjhen District, Kaohsiung City 80672, Taiwan (R.O.C.)","Room 323, 3F., No.3, Yugang E. 2nd Rd., Cianjhen District, Kaohsiung City 80672, Taiwan (R.O.C.)",Kaohsiung City,TWN,22.61718,120.30936
"No.2-1, Fongyu Rd., Linbian Township, Pingtung County 927004, Taiwan (R.O.C.)","No.2-1, Fongyu Rd., Linbian Township, Pingtung County 927004",Pingtung,TWN,22.50799,120.56185
"No. 51-3, Minzu Rd., Liuqiu Township, Pingtung County 92941, Taiwan (R.O.C.)","No. 51-3, Minzu Rd., Liuqiu Township, Pingtung County 92941",Pingtung County,TWN,22.3561,120.37958
"No.20, Lane 1, Heping Rd., Liouciou Township, Pingtung County 929, Taiwan807, Taiwan","No.20, Lane 1, Heping Rd., Liouciou Township, Pingtung County 929, Taiwan",Pingtung County,TWN,22.15914,120.35443
"No.43, Heping St., Donggang Township, Pingtung County 928006, Taiwan (R.O.C)","No.43, Heping St., Donggang Township, Pingtung County 928006",Pingtung County,TWN,22.45557,120.44662
"No. 37, Chaoyang St., Donggang Township, Pingtung County 928006 , Taiwan (R.O.C.)","No. 37, Chaoyang St., Donggang Township, Pingtung County 928006",Pingtung County,TWN,22.47385,120.4512
"1F., No.58, Jiaxin 2nd St., Donggang Township, Pingtung County 92848, Taiwan (R.O.C.)","1F., No.58, Jiaxin 2nd St., Donggang Township, Pingtung County 92848",Pingtung County,TWN,22.46518,120.4521
"No. 137-5, Sanmin Rd., Liuqiu Township, Pingtung County 929003 , Taiwan (R.O.C.)","No. 137-5, Sanmin Rd., Liuqiu Township, Pingtung County 929003",Pingtung County,TWN,22.3253,120.44845
"No.58, Jiaxin 2nd St., Donggang Township, Pingtung County 928005, Taiwan (R.O.C.)","No.58, Jiaxin 2nd St., Donggang Township, Pingtung County 928005",Pingtung County,TWN,22.40694,120.44887
"No.3-2, Ren-ai Rd., Liouciou Township, Pingtung County 929002, Taiwan (R.O.C.)","No.3-2, Ren-ai Rd., Liouciou Township, Pingtung County 929002",Pingtung,TWN,22.46806,120.35472
"No.3-2, Ren’ai Rd., Liouciou Township, Pingtung County 929002, Taiwan (R.O.C.)","No.3-2, Ren’ai Rd., Liouciou Township, Pingtung County 929002","Pingtung, Taiwan",TWN,22.08,120.443
"No.3-1, Ren-ai Rd., Liouciou Township, Pingtung County 929002, Taiwan (R.O.C.)","No.3-1, Ren-ai Rd., Liouciou Township, Pingtung County 929002",Pingtung County,TWN,22.43824,120.34805
"No.91, Mingli Rd., Donggang Township, Pingtung County 928004, Taiwan (R.O.C.)","No.91, Mingli Rd., Donggang Township, Pingtung County 928004",Pingtung County,TWN,22.423,120.457
"No. 91, Mingli Rd., Donggang Township, Pingtung County 928, Taiwan (R.O.C.)","No. 91, Mingli Rd., Donggang Township, Pingtung County 928",Pingtung County,TWN,22.4,120.4
"No. 91, Mingli Rd., Donggang Township, Pingtung County 928004 , Taiwan (R.O.C.)","No. 91, Mingli Rd., Donggang Township, Pingtung County 928004",Pingtung County,TWN,22.28,120.45167
"No. 45, Liyu Rd., Linbian Township, Pingtung County 927004 , Taiwan (R.O.C.)","No. 45, Liyu Rd., Linbian Township, Pingtung County 927004",Pingtung County,TWN,22.36583,120.68472
"No.91, Mingli Rd., Donggang Township, Pingtung County 92842, Taiwan (R.O.C.)","No.91, Mingli Rd., Donggang Township, Pingtung County 92842",Pingtung County,TWN,22.2925,120.4467
"No.332, Mingli Rd., Donggang Township, Pingtung County 92842, Taiwan (R.O.C.)","No. 332, Mingli Rd., Donggang Township, Pingtung County 92842",Pingtung County,TWN,22.46501,120.44996
"2F., No. 102, Xing'an 2nd St., Donggang Township, Pingtung County 928011, Taiwan (R.O.C.)","2F., No. 102, Xing'an 2nd St., Donggang Township, Pingtung County 928011",Pingtung County,TWN,22.4581,120.48522
"No.41, Xinxing 3rd St., Donggang Township, Pingtung County 928, Taiwan (R.O.C.)","No. 41, Xinxing 3rd St., Donggang Township, Pingtung County 928",Pingtung County,TWN,22.46,120.455
"No.9, Ln.433, Xiabu Rd., Donggang Township, Pingtung County 92851, Taiwan (R.O.C.)","No.9, Ln.433, Xiabu Rd., Donggang Township, Pingtung County 92851",Pingtung County,TWN,22.47008,120.454
"No.20 Lane 1, Heping Rd., Liouciou Township, Pingtung County 929, Taiwan(R.O.C.)","No.20 Lane 1, Heping Rd., Liouciou Township, Pingtung County 929",Pingtung County,TWN,22.6153,120.575
"No. 11, Ln. 113, Houping Rd., Qianzhen Dist., Kaohsiung City 806039 , Taiwan (R.O.C.)","No. 11, Ln. 113, Houping Rd., Qianzhen Dist., Kaohsiung City 806039",Kaohsiung City,TWN,22.60484,120.30193
"No. 7, Zhongxing Rd., Liuqiu Township, Pingtung County 929002, Taiwan (R.O.C.)","No. 7, Zhongxing Rd., Liuqiu Township, Pingtung County 929002",Pingtung County,TWN,22.27222,120.45111
"No. 71, Sec. 1, Guangfu Rd., Donggang Township, Pingtung County 928007 , Taiwan (R.O.C.)","No. 71, Sec. 1, Guangfu Rd., Donggang Township, Pingtung County 928007",Pingtung County,TWN,22.47655,120.45599
"No.36, Ln. 176, Nanzheng 2nd Rd., Fengshan Dist., Kaohsiung City 830050, Taiwan (R.O.C.)","No.36, Ln. 176, Nanzheng 2nd Rd., Fengshan Dist.","Kaohsiung City, 830050",TWN,22.636,120.305
"No. 23, Ln. 1, Heping Rd. Liuqiu Township, Pingtung County 929002 , Taiwan (R.O.C.)","No. 23, Ln. 1, Heping Rd.","Liuqiu Township, Pingtung County",TWN,22.32889,120.3875
"No. 76-3, Zhongzheng Rd., Liuqiu Township, Pingtung County 929003 , Taiwan (R.O.C.)","No. 76-3, Zhongzheng Rd., Liuqiu Township, Pingtung County 929003",Pingtung County,TWN,22.32922,120.36651
"No. 23, Ln. 1, Heping Rd., Liuqiu Township, Pingtung County 929002 , Taiwan (R.O.C.)","No. 23, Ln. 1, Heping Rd., Liuqiu Township, Pingtung County 929002",Pingtung County,TWN,23.21664,120.42213
"No.42-12, Zhonghua Rd., Liuqiu Township, Pingtung County 929002, Taiwan (R.O.C.)","No. 42-12, Zhonghua Rd., Liuqiu Township, Pingtung County 929002",Pingtung County,TWN,22.31386,120.33128
"No.18, Fuyu 4th Rd., Donggang Township, Pingtung County 92845, Taiwan (R.O.C.)","No.18, Fuyu 4th Rd., Donggang Township, Pingtung County 92845",Pingtung County,TWN,22.51156,120.45445
"No.11, Yangang Rd., Xinyuan Township, Pingtung County 93248, Taiwan (R.O.C.)","No. 11, Yangang Rd., Xinyuan Township, Pingtung County 93248",Pingtung County,TWN,22.2894,120.4862
"No.92, Ln. 1, Zhongzheng Rd., Liuqiu Township, Pingtung County 92942, Taiwan","No.92, Ln. 1, Zhongzheng Rd., Liuqiu Township, Pingtung County 92942",Pingtung County,TWN,22.34687,120.30919
"No. 50-1, Zhongxiao Rd., Liuqiu Township, Pingtung County 929002 , Taiwan (R.O.C.)","No. 50-1, Zhongxiao Rd., Liuqiu Township, Pingtung County 929002",Pingtung County,TWN,22.90583,120.425
"NO. 128-1, Zhongshan Rd., Liuqiu Township, Pingtung County 929001, Taiwan (R.O,C)","NO. 128-1, Zhongshan Rd., Liuqiu Township, Pingtung County 929001",Pingtung County,TWN,22.35813,120.32992
"No. 109, Gaoping 23rd Rd., Xiaogang Dist., Kaohsiung City 812041 , Taiwan (R.O.C.)","No. 109, Gaoping 23rd Rd., Xiaogang Dist., Kaohsiung City 812041",Kaohsiung (R.O.C.),TWN,22.56389,120.35472
"No. 135-1, Guangqian Rd., Linbian Township, Pingtung County 927004 , Taiwan (R.O.C.)","No. 135-1, Guangqian Rd., Linbian Township, Pingtung County 927004",Pingtung,TWN,22.1141,120.47739
"No. 46, Zhonghua Rd., Liuqiu Township, Pingtung County 929002 , Taiwan (R.O.C.)","No. 46, Zhonghua Rd., Liuqiu Township, Pingtung County 929002",Pingtung County,TWN,23.29935,120.505
"6F.-1, No.130, Sec. 3, Guangfu Rd., Donggang Township, Pingtung County 92849, Taiwan","6F.-1, No.130, Sec. 3, Guangfu Rd., Donggang Township, Pingtung County 92849",Pingtung County,TWN,22.46425,120.46085
"No.17-5, Zhonghua Rd., Liuqiu Township, Pingtung County 92942, Taiwan (R.O.C.)","No.17-5, Zhonghua Rd., Liuqiu Township, Pingtung County 92942",Pingtung County,TWN,22.42651,120.3303
"No.22-1, Zhonghua Rd., Liuqiu Township, Pingtung County 929, Taiwan","No.22-1, Zhonghua Rd., Liuqiu Township, Pingtung County 929",Pingtung County,TWN,22.0,120.4
"No. 45, Ln. 1, Fuxing Rd., Liuqiu Township, Pingtung County 929002 , Taiwan (R.O.C.)","No. 45, Ln. 1, Fuxing Rd., Liuqiu Township, Pingtung County 929002",Pingtung County,TWN,22.42,120.31472
"No.12, Xinyi Rd., Liuqiu Township, Pingtung County 929, Taiwan (R.O.C.)","No.12, Xinyi Rd., Liuqiu Township, Pingtung County 929","Pingtung County, Taiwan",TWN,22.27398,120.40716
"No.10, Xinsheng 2nd Rd., Donggang Township, Pingtung County 92844, Taiwan (R.O.C.)","No.10, Xinsheng 2nd Rd., Donggang Township, Pingtung County 92844",Pingtung County,TWN,22.4875,120.44667
"No. 25, Ln. 690, Wufang Rd., Xinyuan Township, Pingtung County 932017 , Taiwan (R.O.C.)","No. 25, Ln. 690, Wufang Rd., Xinyuan Township, Pingtung County 932017",Pingtung County,TWN,22.53512,120.52948
"No.18, Ln. 7, Sanmin Rd., Liuqiu Township, Pingtung County 92941, Taiwan (R.O.C.)","No.18, Ln. 7, Sanmin Rd., Liuqiu Township, Pingtung County 92941, Taiwan (R.O.C.)",Pingtung County,TWN,23.3,119.56667
"No.45-6, Zhongshan Rd., Donggang Township, Pingtung County 92849, Taiwan (R.O.C.)","No.45-6, Zhongshan Rd., Donggang Township, Pingtung County 92849",Pingtung County,TWN,22.39398,120.43842
"No.4-17, Chuantou Rd., Donggang Township, Pingtung County 92850, Taiwan (R.O.C.)","No.4-17, Chuantou Rd., Donggang Township, Pingtung County 92850",Pingtung County,TWN,22.39629,120.45565
"No. 303, Zhongzheng Rd., Liuqiu Township, Pingtung County 929, Taiwan (R.O.C.)","No. 303, Zhongzheng Rd., Liuqiu Township, Pingtung County 929",Pingtung County,TWN,22.31893,120.44101
"No.66, Chaolong Rd., Donggang Township, Pingtung County 928, Taiwan","No.66, Chaolong Rd., Donggang Township, Pingtung County 928",Pingtung County,TWN,22.49522,120.45401
"No.39, Yugang S. 1st Rd., Qianzhen Dist., Kaohsiung City 80672, Taiwan (R.O.C.)","No. 39, Yugang S. 1st Rd.","Qianzhen Dist., Kaohsiung City",TWN,22.61789,120.28336
"No.11-2, Heping Rd., Liouciou Township, Pingtung County 929, Taiwan","No.11-2, Heping Rd., Liouciou Township, Pingtung County 929",Pingtung County,TWN,22.38917,120.53333
"No.372, Zhongzheng Rd., Xinyuan Shiang, Pingtung County 932014, Taiwan (R.O.C.)","No. 372, Zhongzheng Rd., Xinyuan Shiang","Pingtung County, Taiwan",TWN,22.40134,120.58626
"No.7-1, Minsheng Rd., Liuqiu Township, Pingtung County 92941, Taiwan (R.O.C.)","No.7-1, Minsheng Rd., Liuqiu Township, Pingtung County 92941",Pingtung County,TWN,22.56472,120.40722
"No. 117-7, Sanmin Rd., Liuqiu Township, Pingtung County 929003 , Taiwan (R.O.C.)","No. 117-7, Sanmin Rd., Liuqiu Township, Pingtung County 929003",Pingtung County,TWN,22.33453,120.38552
"No.72, Shangshan Rd., Liuqiu Township, Pingtung County 92942, Taiwan (R.O.C.)","No. 72, Shangshan Rd., Liuqiu Township, Pingtung County 92942",Pingtung County,TWN,22.11667,120.41444
"No. 36-1, Ln. 1, Fuxing Rd., Liuqiu Township, Pingtung County 929002 , Taiwan (R.O.C.)","No. 36-1, Ln. 1, Fuxing Rd., Liuqiu Township, Pingtung County 929002",Pingtung County,TWN,22.7241,120.4015
"No.46, Zhonghua Rd.,  Liuqiu   Township, Pingtung County 92942, Taiwan  (R.O.C.)","No.46, Zhonghua Rd., Liuqiu Township, Pingtung County 92942",Pingtung County,TWN,22.322,120.415
"No.12, Sinyi Rd., Liouciou Township, Pingtung County 929, Taiwan(R.O.C.)","No.12, Sinyi Rd., Liouciou Township, Pingtung County 929",Pingtung County,TWN,22.50134,120.31556
"No.74, Chaolong Rd., Donggang Township, Pingtung County 92844, Taiwan (R.O.C.)","No.74, Chaolong Rd., Donggang Township, Pingtung County 92844",Pingtung,TWN,22.43444,120.44992
"No.22-1, Yanping Rd., Donggang Township, Pingtung County 928001, Taiwan (R.O.C.)","No.22-1, Yanping Rd., Donggang Township, Pingtung County 928001",Pingtung County,TWN,22.457,120.44
"No.74, Chaolong Rd., Donggang Township, Pingtung County 928, Taiwan (R.O.C.)","No. 74, Chaolong Rd.","Donggang Township, Pingtung County 928",TWN,22.46667,120.445
"No. 3, Ln. 1, Fuxing Rd. Liuqiu Township, Pingtung County 929002 , Taiwan (R.O.C.)","No. 3, Ln. 1, Fuxing Rd.","Liuqiu Township, Pingtung County",TW,22.36,120.44
"No.3,Lane 1, Fusing Rd., Liouciou Township, Pingtung County 929, Taiwan","No. 3, Lane 1, Fusing Rd.","Liouciou Township, Pingtung County 929",TW,22.67319,120.29876
"No.51, Zhongzheng Rd., Liuqiu Township, Pingtung County 929, Taiwan","No. 51, Zhongzheng Rd.","Liuqiu Township, Pingtung County",TWN,22.31422,120.39741
"No.3-3, Jhongsing Rd., Liouciou Township, Pingtung County 92942, Taiwan(R.O.C)","No.3-3, Jhongsing Rd., Liouciou Township, Pingtung County 92942",Pingtung County,TWN,22.0114,120.45896
"No.22-2, Heping Rd., Liouciou Township, Pingtung County 929, Taiwan(R.O.C.)","No.22-2, Heping Rd., Liouciou Township, Pingtung County 929",Pingtung County,TWN,22.20639,120.30773
"No. 33, Mingli 3rd St., Donggang Township, Pingtung County 928004 , Taiwan (R.O.C.)","No. 33, Mingli 3rd St., Donggang Township, Pingtung County 928004",Pingtung,TWN,22.45354,120.45432
"No. 80, Minsheng Rd., Liuqiu Township, Pingtung County 929001 , Taiwan (R.O.C.)","No. 80, Minsheng Rd., Liuqiu Township, Pingtung County 929001",Pingtung County,TWN,23.1925,120.40625
"9F., No. 212, Xinfu Rd., Fengshan Dist., Kaohsiung City 830044 , Taiwan (R.O.C.)","9F., No. 212, Xinfu Rd., Fengshan Dist., Kaohsiung City 830044",Kaohsiung City,TWN,22.62722,120.35056
"No. 37, Mingli 3rd St., Donggang Township, Pingtung County 928004 , Taiwan (R.O.C.)","No. 37, Mingli 3rd St.","Donggang Township, Pingtung County",TWN,22.44872,120.44915
"No.24, Sinsheng 1st Rd., Donggang Township, Pingtung County 92844, Taiwan (R.O.C.)","No.24, Sinsheng 1st Rd., Donggang Township, Pingtung County 92844, Taiwan (R.O.C.)",Pingtung County,TWN,22.34127,120.4555
"No.47-1,Lane 1, Fusing Rd., Liouciou Township, Pingtung County 929, Taiwan","No.47-1, Lane 1, Fusing Rd., Liouciou Township, Pingtung County 929",Pingtung County,TWN,22.58259,120.39367
"No.61, Zhenhai Rd., Donggang Township, Pingtung County 92845, Taiwan (R.O.C.)","No.61, Zhenhai Rd., Donggang Township, Pingtung County 92845",Pingtung County,TWN,22.31333,120.44861
"No. 33-63, Zhongxing Rd., Liuqiu Township, Pingtung County 929002 , Taiwan (R.O.C.)","No. 33-63, Zhongxing Rd., Liuqiu Township, Pingtung County 929002",Pingtung County,TWN,22.33333,120.5
"No. 22, Ln. 81, Shanban Rd., Liuqiu Township, Pingtung County 929002 , Taiwan (R.O.C.)","No. 22, Ln. 81, Shanban Rd., Liuqiu Township, Pingtung County 929002",Pingtung County,TWN,22.20667,120.38667
"No.375, Mingde 1st Rd., Donggang Township, Pingtung County 928004, Taiwan (R.O.C.)","No.375, Mingde 1st Rd., Donggang Township, Pingtung County 928004",Pingtung County,TWN,22.19215,120.45555
"No.6, Liyu Rd., Linbian Township, Pingtung County 92745, Taiwan (R.O.C.)","No.6, Liyu Rd., Linbian Township, Pingtung County 92745",Pingtung County,TWN,22.37444,120.49381
"No.31-5, Lane 3, Heping Rd., Liuqiu Township, Pingtung County 92942, Taiwan (R.O.C.)","No.31-5, Lane 3, Heping Rd., Liuqiu Township, Pingtung County 92942",Pingtung,TWN,22.315,120.40333
"No.92, Ren'ai Rd., Liuqiu Township, Pingtung County 929, Taiwan (R.O.C.)","No.92, Ren'ai Rd., Liuqiu Township, Pingtung County 929",Pingtung,TWN,22.32955,120.40682
"No.47, Ln. 1, Fuxing Rd., Liuqiu Township, Pingtung County 92942, Taiwan (R.O.C.)","No.47, Ln. 1, Fuxing Rd., Liuqiu Township, Pingtung County 92942",Pingtung County,TWN,22.3241,120.38962
"No. 267-12, Sanmin Rd., Liuqiu Township, Pingtung County 929001 , Taiwan (R.O.C.)","No. 267-12, Sanmin Rd., Liuqiu Township, Pingtung County 929001",Pingtung County,TWN,22.34795,120.26957
"No. 32, Zhongzheng Rd., Donggang Township, Pingtung County 928008 , Taiwan (R.O.C.)","No. 32, Zhongzheng Rd., Donggang Township, Pingtung County 928008",Pingtung County,TWN,22.4546,120.44654
"No. 21, Mingli 2nd St., Donggang Township, Pingtung County 928004, Taiwan(R.O.C.)","No. 21, Mingli 2nd St., Donggang Township, Pingtung County 928004",Pingtung County,TWN,22.47492,120.46073
"No.22, Minquan Rd., Liuqiu Township, Pingtung County 92942, Taiwan (R.O.C.)","No. 22, Minquan Rd., Liuqiu Township, Pingtung County 92942",Pingtung County,TWN,22.0275,120.44639
"No.59, Dacheng Rd., Donggang Township, Pingtung County 928005, Taiwan (R.O.C.)","No.59, Dacheng Rd., Donggang Township, Pingtung County 928005",Pingtung County,TWN,22.4235,120.45467
"No.37, Fongyu Rd., Linbian Township, Pingtung County 92745, Taiwan (R.O.C.)","No.37, Fongyu Rd., Linbian Township, Pingtung County 92745",Pingtung,TWN,22.39194,120.51925
"No. 59, Dacheng Rd., Donggang Township, Pingtung County 928005 , Taiwan (R.O.C.)","No. 59, Dacheng Rd., Donggang Township, Pingtung County 928005",Pingtung County,TWN,22.3,120.45
"No. 75, Yanping Rd., Donggang Township, Pingtung County 928001 , Taiwan (R.O.C.)","No. 75, Yanping Rd., Donggang Township, Pingtung County 928001",Pingtung County,TWN,22.43339,120.44865
"1F., No.75, Yanping Rd., Donggang Township, Pingtung County 92843, Taiwan (R.O.C.)","1F., No.75, Yanping Rd., Donggang Township, Pingtung County 92843",Pingtung County,TWN,22.51667,120.45472
"1F., No.75, Yanping Rd., Donggang Township, Pingtung County 92843, Taiwan","1F., No.75, Yanping Rd., Donggang Township, Pingtung County 92843",Pingtung,TWN,22.425,120.4525
"1F., No. 57, Dacheng Rd., Donggang Township, Pingtung County 928005 , Taiwan (R.O.C.)","1F., No. 57, Dacheng Rd., Donggang Township, Pingtung County 928005",Pingtung County,TWN,22.3275,120.455
"No.37, Fongyu Rd., Linbian Township, Pingtung County 927, Taiwan (R.O.C.)","No.37, Fongyu Rd., Linbian Township, Pingtung County 927",Pingtung County,TWN,22.57136,120.51567
"No. 34-25, Fengyu St., Donggang Township, Pingtung County 928003 , Taiwan (R.O.C.)","No. 34-25, Fengyu St., Donggang Township, Pingtung County 928003",Pingtung County,TWN,22.4197,120.46604
"No.116-7, Zhongzheng Rd., Liuqiu Township, Pingtung County 929, Taiwan (R.O.C.)","No.116-7, Zhongzheng Rd., Liuqiu Township, Pingtung County 929",Pingtung County,TWN,22.29304,120.39161
"No.179, Guangfu Rd., Xinyuan Township, Pingtung County 932, Taiwan(R.O.C.)","No.179, Guangfu Rd., Xinyuan Township, Pingtung County 932",Pingtung County,TWN,22.51667,120.51
"No.179, Guangfu Rd., Xinyuan Township, Pingtung County, Taiwan(R.O.C.)","No.179, Guangfu Rd.","Xinyuan Township, Pingtung County",TWN,22.58893,120.52163
"No.179, Guangfu Rd., Sinyuan Township, Pingtung County, Taiwan(R.O.C.)","No.179, Guangfu Rd., Sinyuan Township, Pingtung County",Pingtung County,TWN,22.5695,120.4176
"No.16, Lane. 81, Shanban Rd., Liuqiu Township, Pingtung County 92942, Taiwan (R.O.C.)","No. 16, Lane 81, Shanban Rd.","Liuqiu Township, Pingtung County",TWN,22.22198,120.44003
"No.102-1, Zhenhai Rd., Donggang Township, Pingtung County 92842, Taiwan (R.O.C.)","No.102-1, Zhenhai Rd., Donggang Township, Pingtung County 92842",Pingtung County / Taiwan,TWN,22.47917,120.45361
"No.73-3 Jhongiheng Rd., Liouciou Township, Pingtung County 92942, Taiwan (R.O.C.)","No.73-3 Jhongiheng Rd., Liouciou Township, Pingtung County 92942",Pingtung County,TWN,22.07111,120.41556
"No. 88, Mingli 3rd St., Donggang Township, Pingtung County 928004, Taiwan (R.O.C.)","No. 88, Mingli 3rd St., Donggang Township, Pingtung County 928004",Pingtung,TWN,22.48917,120.45167
"No.81, Zhongzheng Rd., Liuqiu Township, Pingtung County 929, Taiwan (R.O.C.)","No. 81, Zhongzheng Rd., Liuqiu Township, Pingtung County 929, Taiwan (R.O.C.)",Pingtung County,TWN,22.32134,120.38297
"6F., No.21, Ln. 170, Wenci Rd., Zuoying Dist., Kaohsiung City 81368, Taiwan (R.O.C.)","6F., No.21, Ln. 170, Wenci Rd., Zuoying Dist., Kaohsiung City 81368",Kaohsiung City,TWN,22.62189,120.3075
"No.137-4, Sanmin Rd., Liuqiu Township, Pingtung County 92943, Taiwan (R.O.C.)","No.137-4, Sanmin Rd., Liuqiu Township, Pingtung County 92943",Pingtung County,TWN,22.25107,120.38445
"No.76, Ln. 130, Xinxing 3rd St., Donggang Township, Pingtung County 92842, Taiwan (R.O.C.)","No.76, Ln. 130, Xinxing 3rd St., Donggang Township, Pingtung County 92842, Taiwan (R.O.C.)",Pingtung County,TWN,22.46472,120.44556
"No. 108, Sanmin Rd., Liuqiu Township, Pingtung County 929003 , Taiwan (R.O.C.)","108 Sanmin Rd, Liuqiu Township, Pingtung County 929003, Taiwan",Pingtung County,TWN,22.35322,120.4016
"No.137-4,Sanmin Rd.,Liuqiu Township,Pingtung County 929003 ,Taiwan(R.O.C)","No. 137-4, Sanmin Rd., Liuqiu Township",Pingtung County,TWN,22.3527,120.3945
"No.29-17, Fude St., Donggang Township, Pingtung County 92844, Taiwan (R.O.C.)","No.29-17, Fude St., Donggang Township, Pingtung County 92844",Pingtung County,TWN,22.50372,120.44467
"No.179, Guangfu Rd., Xinyuan Township, Pingtung County 932, Taiwan (R.O.C.)","No. 179, Guangfu Rd., Xinyuan Township, Pingtung County 932",Pingtung County,TWN,22.69799,120.46133
"No. 73-6, Zhongshan Rd., Liuqiu Township, Pingtung County 929001 , Taiwan (R.O.C.)","No. 73-6, Zhongshan Rd., Liuqiu Township, Pingtung County 929001",Pingtung County,TWN,22.66385,120.37845
"No.11-8, Ln. 3, Zhongzheng Rd., Liuqiu Township, Pingtung County 929, Taiwan (R.O.C.)","No. 11-8, Ln. 3, Zhongzheng Rd., Liuqiu Township, Pingtung County 929",Pingtung County,TWN,22.3215,14.3929
"No.137-4, Sanmin Rd., Liuqiu Township, Pingtung County 929, Taiwan (R.O.C.)","No.137-4, Sanmin Rd., Liuqiu Township, Pingtung County 929",Pingtung County,TWN,22.90384,120.48642
"No.137-4, Sanmin Rd., Liouciou Township, Pingtung County 929, Taiwan (R.O.C.)","No.137-4, Sanmin Rd., Liouciou Township, Pingtung County 929",Pingtung County,TWN,22.25806,120.44147
"No. 137-4, Sanmin Rd., Liuqiu Township, Pingtung County 929003 , Taiwan (R.O.C.)","No. 137-4, Sanmin Rd., Liuqiu Township, Pingtung County 929003",Pingtung County,TWN,22.37823,120.35311
"No.27, Lane 66, Mingde Rd., Donggang Township, Pingtung County 92842, Taiwan (R.O.C.)","No.27, Lane 66, Mingde Rd., Donggang Township, Pingtung County 92842",Pingtung County,TWN,22.26965,120.4175
"No.52-10, Jhongsing Rd., Liouciou Township, Pingtung County 929, Taiwan (R.O.C.)","No. 52-10, Jhongsing Rd., Liouciou Township, Pingtung County 929",Pingtung County,TWN,22.02738,120.36053
"No.52-10, Zhongxing Rd., Liuqiu Township, Pingtung County 92942, Taiwan (R.O.C.)","No.52-10, Zhongxing Rd., Liuqiu Township, Pingtung County 92942, Taiwan (R.O.C.)",Pingtung County,TWN,22.26438,120.377
"No.52-10, Zhongxing Rd., Liuqiu Township, Pingtung County 929, Taiwan (R.O.C.)","No.52-10, Zhongxing Rd., Liuqiu Township, Pingtung County 929",Pingtung County,TWN,22.35,120.42917
"No. 52-10, Zhongxing Rd., Liuqiu Township, Pingtung County 929002 , Taiwan (R.O.C.)","No. 52-10, Zhongxing Rd., Liuqiu Township, Pingtung County 929002",Pingtung,TWN,22.3035,120.325
"No.9-1, Ln. 1, Heping Rd., Liuqiu Township, Pingtung County 92942, Taiwan (R.O.C.)","No.9-1, Ln. 1, Heping Rd., Liuqiu Township, Pingtung County 92942",Pingtung County,TWN,22.22222,120.4425
"No. 2, Xinyi Rd. Liuqiu Township, Pingtung County 929002 , Taiwan (R.O.C.)","No. 2, Xinyi Rd., Liuqiu Township, Pingtung County 929002",Pingtung County,TWN,22.3714,120.36667
"No. 1, Ln. 17, Tongchang St., Nanzi Dist., Kaohsiung City 811029 , Taiwan (R.O.C.)","No. 1, Ln. 17, Tongchang St., Nanzi Dist., Kaohsiung City 811029","Kaohsiung City, Taiwan",TWN,22.66667,120.3
"No.119, Guangqian Rd., Linbian Township, Pingtung County 927004, Taiwan (R.O.C.)","No.119, Guangqian Rd., Linbian Township, Pingtung County 927004",Pingtung County,TWN,22.61792,120.5113
"No.41 Lane 262, Yanhai 5th Rd., Donggang Township, Pingtung County 928, Taiwan","No. 41 Lane 262, Yanhai 5th Rd., Donggang Township, Pingtung County 928",Pingtung County,TWN,22.46954,120.45579
"No.62, Chaolong Rd., Donggang Township, Pingtung County 928, Taiwan","No.62, Chaolong Rd., Donggang Township, Pingtung County 928",Pingtung County,TWN,22.45944,120.44087
"No.62, Chaolong Rd., Donggang Township, Pingtung County 928, Taiwan(R.O.C.)","No.62, Chaolong Rd., Donggang Township, Pingtung County 928",Pingtung County,TWN,22.44,120.46667
"No. 1, Huanmei Rd., Donggang Township, Pingtung County 928010 , Taiwan (R.O.C.)","No. 1, Huanmei Rd., Donggang Township, Pingtung County 928010",Pingtung County,TWN,22.46256,120.45497
"No.1, Huanmei Rd., Donggang Township, Pingtung County 928010, Taiwan (R.O.C.)","No.1, Huanmei Rd., Donggang Township, Pingtung County 928010","Pingtung City, Pingtung County",TWN,22.35889,120.44972
"No.1, Huanmei Rd., Donggang Township, Pingtung County 92841, Taiwan (R.O.C.)","No.1, Huanmei Rd., Donggang Township, Pingtung County 92841",Pingtung County,TWN,22.4747,120.45538
"No.2-5, Lizuo Rd., Linbian Township, Pingtung County 92745, Taiwan (R.O.C.)","No.2-5, Lizuo Rd., Linbian Township, Pingtung County 92745",Pingtung County,TWN,22.739,120.422
"1F., No. 10, Ln. 38, Mingli Rd., Donggang Township, Pingtung County 928004 , Taiwan (R.O.C.)","1F., No. 10, Ln. 38, Mingli Rd., Donggang Township, Pingtung County 928004",Pingtung,TWN,22.45223,120.45031
"1F., No.32, Zhongzheng Rd., Donggang Township, Pingtung County 92849, Taiwan (R.O.C.)","1F., No.32, Zhongzheng Rd., Donggang Township, Pingtung County 92849",Pingtung,TWN,22.45328,120.45373
"No. 15, Ln. 1588, Chengguan Rd., Renwu Dist., Kaohsiung City 814017 , Taiwan (R.O.C.)","No. 15, Ln. 1588, Chengguan Rd., Renwu Dist., Kaohsiung City 814017","Kaohsiung City, Taiwan",TWN,22.67856,120.35344
"No.78, Chaolong Rd., Donggang Township, Pingtung County 92844, Taiwan","No.78, Chaolong Rd., Donggang Township, Pingtung County 92844",Pingtung,TWN,22.44278,120.45833
"No. 73-2, Zhongzheng Rd., Donggang Township, Pingtung County 928, Taiwan (R.O.C.)","No. 73-2, Zhongzheng Rd., Donggang Township, Pingtung County 928",Pingtung County,TWN,22.45222,120.46667
"No. 73-2, Zhongzheng Rd., Liuqiu Township, Pingtung County 929002 , Taiwan (R.O.C.)","No. 73-2, Zhongzheng Rd., Liuqiu Township, Pingtung County 929002",Pingtung County,TWN,22.34889,120.38611
"No.42-3, Liyu Rd., Linbian Township, Pingtung County 92745, Taiwan (R.O.C.)","No.42-3, Liyu Rd., Linbian Township, Pingtung County 92745",Pingtung County,TWN,22.321,120.59663
"No. 51-1, Jialian Rd., Donggang Township, Pingtung County 928005 , Taiwan (R.O.C.)","No. 51-1, Jialian Rd., Donggang Township, Pingtung County 928005",Pingtung County,TWN,22.50374,120.45482
"1F., No.53, Ln. 199, Mingli Rd., Donggang Township, Pingtung County 92842, Taiwan (R.O.C.)","1F., No.53, Ln. 199, Mingli Rd., Donggang Township, Pingtung County 92842",Pingtung County,TWN,22.3212,120.4557
"No.62-8, Zhongshan Rd., Liuqiu Township, Pingtung County 929001, Taiwan (R.O.C.)","No.62-8, Zhongshan Rd., Liuqiu Township, Pingtung County 929001",Pingtung County,TWN,22.0725,120.30972
"No.37-9, Jhenhai Rd., Donggang Township, Pingtung County 928, Taiwan","No.37-9, Jhenhai Rd., Donggang Township, Pingtung County 928",Pingtung County,TWN,22.37167,120.46694
"No.115, Fuxing Rd., Liuqiu Township, Pingtung County 929002, Taiwan (R.O.C.)","No. 115, Fuxing Rd., Liuqiu Township, Pingtung County 929002",Pingtung County,TWN,22.25086,120.40585
"No. 31, Mingli 3rd St., Donggang Township, Pingtung County 928004 , Taiwan (R.O.C.)","No. 31, Mingli 3rd St., Donggang Township, Pingtung County 928004",Pingtung County,TWN,22.40723,120.47035
"No. 47, Fuyu 3rd Rd., Donggang Township, Pingtung County 928003 , Taiwan (R.O.C.)","No. 47, Fuyu 3rd Rd., Donggang Township, Pingtung County 928003",Pingtung County,TWN,22.43446,120.45447
"No.17-2, Zhongxing Rd., Liuqiu Township, Pingtung County 92942, Taiwan (R.O.C.)","No.17-2, Zhongxing Rd., Liuqiu Township, Pingtung County 92942",Pingtung County,TWN,22.20365,120.39615
"No. 45-6, Zhongshan Rd., Donggang Township, Pingtung County 928002 , Taiwan (R.O.C.)","No. 45-6, Zhongshan Rd., Donggang Township, Pingtung County 928002",Pingtung County,TWN,22.45472,120.44577
"No.54-10, Zhongxing Rd., Liuqiu Township, Pingtung County 929, Taiwan (R.O.C.)","No.54-10, Zhongxing Rd., Liuqiu Township, Pingtung County 929",Pingtung County,TWN,22.3361,120.32017
"No.23, Mingli 5th St., Donggang Township, Pingtung County 92842, Taiwan (R.O.C.)","No.23, Mingli 5th St., Donggang Township, Pingtung County 92842",Pingtung County,TWN,22.4982,120.4468
"No.7-20, Zhenhai Rd., Donggang Township, Pingtung County 92845, Taiwan (R.O.C.)","No.7-20, Zhenhai Rd., Donggang Township, Pingtung County 92845",Pingtung County,TWN,22.46,120.46667
"No. 53, Zhongzheng Rd., Liuqiu Township, Pingtung County 929002 , Taiwan (R.O.C.)","No. 53, Zhongzheng Rd., Liuqiu Township, Pingtung County 929002",Pingtung County,TWN,22.02726,120.34411
"8F.-3, No.107, Wumiao Rd., Lingya Dist., Kaohsiung City 80289, Taiwan (R.O.C.)","8F.-3, No.107, Wumiao Rd., Lingya Dist., Kaohsiung City 80289",Kaohsiung City / Taiwan,TWN,22.61667,120.29333
"1F., No. 2-1, Houping Rd., Qianzhen Dist., Kaohsiung City 806039 , Taiwan (R.O.C.)","No. 2-1, Houping Rd., Qianzhen Dist.","Kaohsiung City, 806039",TWN,22.60556,120.30885
"No. 92, Foxi St., Qianzhen Dist., Kaohsiung City 806042 , Taiwan (R.O.C.)","No. 92, Foxi St., Qianzhen Dist., Kaohsiung City 806042","Kaohsiung City, Taiwan",TWN,22.625,120.27666
"No.70, Ln. 276, Yanhai 5th Rd., Donggang Township, Pingtung County 928, Taiwan (R.O.C.)","No.70, Ln. 276, Yanhai 5th Rd., Donggang Township, Pingtung County 928",Pingtung County,TWN,22.49397,120.45347
"No.197, Zhongshan Rd., Liuqiu Township, Pingtung County 929, Taiwan (R.O.C.)","No.197, Zhongshan Rd., Liuqiu Township, Pingtung County 929",Pingtung County,TWN,22.31758,120.40709
"No.199, Zhongshan Rd., Liuqiu Township, Pingtung County 929001, Taiwan (R.O.C.)","No.199, Zhongshan Rd., Liuqiu Township, Pingtung County 929001",Pingtung County,TWN,22.039,120.47
"No.199, Jhongshan Rd., Liouciou Township, Pingtung County 92941, Taiwan(R.O.C.)","No.199, Jhongshan Rd., Liouciou Township, Pingtung County 92941",Pingtung County,TWN,22.67944,120.37085
"No. 199, Zhongshan Rd., Liuqiu Township, Pingtung County 929001 , Taiwan (R.O.C.)","No. 199, Zhongshan Rd., Liuqiu Township, Pingtung County 929001",Pingtung County,TWN,22.38455,120.39211
"No.109, Gaoping 23rd Rd., Xiaogang Dist., Kaohsiung City 812, Taiwan (R.O.C.)","No.109, Gaoping 23rd Rd., Xiaogang Dist.",Kaohsiung City 812,TWN,22.56378,120.35521
"No. 316, Xin 7th St., Daliao Dist., Kaohsiung City 831142 , Taiwan (R.O.C.)","No. 316, Xin 7th St., Daliao Dist., Kaohsiung City 831142",Kaohsiung City,TWN,22.68577,120.37835
"No.151 , Yanping Rd. Donggang Township, Pingtung County 928002 , Taiwan (R.O.C.)","No. 151, Yanping Rd.","Donggang Township, Pingtung County",TWN,22.474,120.455
"No.307-26, Xingdong Rd., Donggang Township, Pingtung County 92841, Taiwan (R.O.C.)","No.307-26, Xingdong Rd., Donggang Township, Pingtung County 92841",Pingtung County,TWN,22.54412,120.45214
"No. 7, Aly. 27, Ln. 507, Sec. 2, Zhongzheng Rd., Donggang Township, Pingtung County  , Taiwan(R.O.C.)","No. 7, Aly. 27, Ln. 507, Sec. 2, Zhongzheng Rd., Donggang Township, Pingtung County",Pingtung County,TWN,22.47276,120.45999
"No.1,Kaiyuan 1st Lin., Chaozhou Township, Pingtung County 92055, Taiwan (R.O.C.)","No.1, Kaiyuan 1st Lin., Chaozhou Township, Pingtung County 92055",Pingtung County,TWN,22.422,120.494
"5F., No.139, Hou?an Rd., Qianzhen Dist., Kaohsiung City 806, Taiwan (R.O.C.)","5F., No.139, Houan Rd., Qianzhen Dist., Kaohsiung City 806","Kaohsiung City, Taiwan",TWN,22.634939,120.29871
"No. 137-2, Fuxing Rd., Liuqiu Township, Pingtung County 929002 , Taiwan (R.O.C.)","No. 137-2, Fuxing Rd., Liuqiu Township, Pingtung County 929002",Pingtung County,TWN,22.36372,120.38997
"4F., No. 259, Zhongzheng Rd., Luzhou Dist., New Taipei City 24759 , Taiwan (R.O.C.)","4F., No. 259, Zhongzheng Rd., Luzhou Dist., New Taipei City 24759",New Taipei City,TWN,25.06725,121.408
"No. 3, Yugang E. 2nd Rd., Qianzhen Dist., Kaohsiung City 806617 , Taiwan (R.O.C.)","No. 3, Yugang E. 2nd Rd., Qianzhen Dist., Kaohsiung City 806617",Kaohsiung City,TWN,22.61444,120.27056
"No.259, Zhongzheng Rd., Luzhou Dist., New Taipei City 24759, Taiwan (R.O.C.)","No. 259, Zhongzheng Rd., Luzhou Dist.",New Taipei City,TWN,25.08432,121.49074
"No. 235, Yiren Rd., Xinyuan Township, Pingtung County 932012 , Taiwan (R.O.C.)","No. 235, Yiren Rd., Xinyuan Township, Pingtung County 932012",Pingtung County,TWN,22.56325,120.46615
"7F.-1, No. 3, Ln. 38, Minquan Rd., Luzhou Dist., New Taipei City 247016 , Taiwan (R.O.C.)","7F.-1, No. 3, Ln. 38, Minquan Rd., Luzhou Dist., New Taipei City 247016",New Taipei City,TWN,25.08683,121.46111
"2F.-2, No. 82, Houping Rd., Qianzhen Dist., Kaohsiung City 806039 , Taiwan (R.O.C.)","2F.-2, No. 82, Houping Rd., Qianzhen Dist., Kaohsiung City 806039",Kaohsiung City,TWN,22.62305,120.30554
"1F., No. 238, Lainan St., Yancheng Dist., Kaohsiung City 803006 , Taiwan (R.O.C.)","1F., No. 238, Lainan St., Yancheng Dist., Kaohsiung City 803006",Kaohsiung City,TWN,22.62333,120.29778
"3F., No.29, Ln. 285, Juemin Rd., Sanmin Dist., Kaohsiung City 80768, Taiwan (R.O.C.)","3F., No.29, Ln. 285, Juemin Rd., Sanmin Dist., Kaohsiung City 80768",Kaohsiung City,TWN,22.62719,120.3085
"No.18, Ln. 7, Sanmin Rd., Liouciou Township, Pingtung County 92941, Taiwan","No.18, Ln. 7, Sanmin Rd., Liouciou Township, Pingtung County 92941",Pingtung,TWN,22.725,120.399167
"No.11-4, Sinyi Rd., Liouciou Township, Pingtung County 929, Taiwan (R.O.C.)","No.11-4, Sinyi Rd., Liouciou Township, Pingtung County 929",Pingtung County,TWN,22.05303,120.5162
"No. 20, Fucheng 3rd St., Fengshan Dist., Kaohsiung City 8320052 , Taiwan (R.O.C.)","No. 20, Fucheng 3rd St., Fengshan Dist., Kaohsiung City 8320052",Kaohsiung,TWN,22.62527,120.35358
"No.130-1, Jhongshan Rd., Liouciou Township, Pingtung County 929, Taiwan (R.O.C.)","No.130-1, Jhongshan Rd., Liouciou Township, Pingtung County 929",Pingtung County,TWN,22.42698,120.40897
"No.10, Fuyu 5th Rd., Donggang Township, Pingtung County 928, Taiwan (R.O.C.)","No.10, Fuyu 5th Rd., Donggang Township, Pingtung County 928",Pingtung County,TWN,22.47111,120.455
"No.51-1, Aly. 87, Ln. 21, Benyu Rd., Liuqiu Township, Pingtung County 929001, Taiwan (R.O.C.)","No.51-1, Aly. 87, Ln. 21, Benyu Rd., Liuqiu Township, Pingtung County 929001",Pingtung County,TWN,22.32,120.43833
"No. 81-12, Ln. 21, Benyu Rd., Liuqiu Township, Pingtung County 929, Taiwan (R.O.C.)","No. 81-12, Ln. 21, Benyu Rd., Liuqiu Township, Pingtung County 929",Pingtung County,TWN,22.31417,120.39167
"1F., No.12, Ln. 66, Mingde Rd., Donggang Township, Pingtung County 92842, Taiwan (R.O.C.)","1F., No.12, Ln. 66, Mingde Rd., Donggang Township, Pingtung County 92842",Pingtung County,TWN,22.48,120.45667
"No. 122-1, Zhongshan Rd., Liuqiu Township, Pingtung County 929001, Taiwan (R.O.C.)","No. 122-1, Zhongshan Rd., Liuqiu Township, Pingtung County 929001",Pingtung County,TWN,22.3225,120.3925
"No. 133, Mingli Rd., Donggang Township, Pingtung County 928004, Taiwan (R.O.C.)","No. 133, Mingli Rd., Donggang Township, Pingtung County 928004",Pingtung County,TWN,22.45678,120.46789
"No. 23-4, Ln. 2, Guangfu Rd., Xinyuan Township, Pingtung County 932014 , Taiwan (R.O.C.)","No. 23-4, Ln. 2, Guangfu Rd., Xinyuan Township, Pingtung County 932014",Pingtung County,TWN,22.530167,120.501998
"No.23-4, Ln. 2, Guangfu Rd., Xinyuan Township, Pingtung County 932, Taiwan (R.O.C.)","No.23-4, Ln. 2, Guangfu Rd., Xinyuan Township, Pingtung County 932",Pingtung County,TWN,22.4151,120.5363
"No. 228, Xinsheng 3rd Rd., Donggang Township, Pingtung County 928002 , Taiwan (R.O.C.)","No. 228, Xinsheng 3rd Rd., Donggang Township, Pingtung County 928002",Pingtung County,TWN,22.4672,120.4553
"No. 438, Xingdong Rd., Donggang Township, Pingtung County928011 , Taiwan (R.O.C.)","– No. 438, Xingdong Rd., Donggang Township, Pingtung County, 928011",– Pingtung County,– TWN,,
"3F., No. 861,17th Neighborhood, Dashun 1st Rd., Gushan Dist., Kaohsiung City 804058 , Taiwan (R.O.C.)","3F., No. 861, 17th Neighborhood, Dashun 1st Rd., Gushan Dist., Kaohsiung City 804058",Kaohsiung City,TWN,22.61433,120.28167
"No. 87, Zhongshan Rd., Xinyuan Township, Pingtung County 932015 , Taiwan (R.O.C.)","No. 87, Zhongshan Rd., Xinyuan Township, Pingtung County 932015",Pingtung County,TWN,22.52605,120.60375
"2F., No. 71, Sec. 1, Guangfu Rd., Donggang Township, Pingtung County 928007 , Taiwan (R.O.C.)","2F., No. 71, Sec. 1, Guangfu Rd., Donggang Township, Pingtung County 928007",Pingtung,TWN,22.43966,120.44965
"No. 81, Zhongzheng Rd., Liuqiu Township, Pingtung County 929002 , Taiwan (R.O.C.)","No. 81, Zhongzheng Rd., Liuqiu Township, Pingtung County 929002",Pingtung County,TWN,22.32865,120.38779
"No.94-8, Ren-ai Rd., Liuqiu Township, Pingtung County 92942, Taiwan","No.94-8, Ren-ai Rd., Liuqiu Township, Pingtung County 92942","Pingtung County, Taiwan",TWN,22.35682,120.1745
"15375 SE 30TH PL STE 260, BELLEVUE, WA 98007-6500, USA",15375 SE 30TH PL STE 260,"Bellevue, WA",USA,47.5935,-122.14628
"1135 N NIMITZ HWY, HONOLULU, HI 96817-4522, USA",1135 N NIMITZ HWY,"Honolulu, HI",USA,21.31994,-157.8677
"FIRST FLOOR, LAW PARTNERS HOUSE,P.O.BOX.1019, PORT VILA, VANUATU","FIRST FLOOR, LAW PARTNERS HOUSE, P.O.BOX.1019",Port Vila,VUT,-17.73333,168.32111
"First Floor, Law Partners House, P.O Box 1019, Port Vila, Vanuatu","First Floor, Law Partners House, P.O Box 1019",Port Vila,VUO,-17.733335,168.321674
"First Floor Law Partners House, P.O.Box 1019, Port Vila, Vanuatu","First Floor Law Partners House, P.O.Box 1019",Port Vila,VUO,-17.73333,168.32139
"First Floor Law Partners House, Lini Highway, P.O. Box 1019, Port Vila Vanuatu","First Floor Law Partners House, Lini Highway, P.O. Box 1019",Port Vila,VUT,-17.73333,168.32111
"1ST FLOOR,LAW PARTNERS HOUSE, LINI HIGHWAY,P.O.BOX.1019, PORT VILA,VANUATU","1st Floor, Law Partners House, Lini Highway, P.O. Box 1019, Port Vila -- Efate -- VUT -- -17.73333 -- 168.32167",,,,
"First Floor, Law Partners House, Lini Highway, P.O.Box 1019, Port Vila, Vanuatu","First Floor, Law Partners House, Lini Highway, P.O.Box 1019",Port Vila,VUO,-17.733333,168.325
"International Building, No.5 Wharf Road, Port Vila, Vanuatu","International Building, No.5 Wharf Road",Port Vila / Shefa,VUT,-17.73333,168.31833
"First Floor, Law Partners House, P.O.BOX 1019, Port Vila Vanuatu","First Floor, Law Partners House, P.O.BOX 1019",Port Vila,VU,-17.73333,168.32111
"INTERNATIONAL BUILDING, No.5 WHARF ROAD, PORT VILA, REPUBLIC OF VANUATU.","INTERNATIONAL BUILDING, No.5 WHARF ROAD",PORT VILA,VUT,-17.73333,168.325
"FIRST FLOOR, iCOUNT BUILDING, KUMUL HIGHWAY, PORT VILA, VANUATU","FIRST FLOOR, iCOUNT BUILDING, KUMUL HIGHWAY, PORT VILA -- SHEFA -- VUT -- -17.73333 -- 168.32111",,,,
"iCount Building, Kumul Highway, Port Vila, Vanuatu","iCount Building, Kumul Highway, Port Vila",Shefa Province,VUT,-17.73689,168.32134
